facility_id,role,latitude,longitude,city_zone,industry_type,operating_temp_c,flow_capacity_kw,schedule_start_utc,schedule_end_utc,operational_days,current_status
0bb8f759-dfc8-40b1-ae3d-bfc81a77a76f,PRODUCER,30.140417,76.217916,Haryana & Delhi NCR,brickyard,230.3,10014.8,06:00:00,18:00:00,Mon-Fri,ACTIVE
5c84a3f6-a8ac-4499-a7d0-029bc098f47f,PRODUCER,28.534647,77.170017,Haryana & Delhi NCR,depot,257.5,16390.6,06:00:00,18:00:00,Mon-Fri,ACTIVE
0a0e7aaa-46ca-4732-8a5b-f293d51149ad,PRODUCER,28.205735,77.212046,Haryana & Delhi NCR,warehouse,176.5,12343.7,06:00:00,18:00:00,Mon-Fri,ACTIVE
d39753c6-3d52-46ed-ac43-666587cba8fe,PRODUCER,28.554185,77.052908,Haryana & Delhi NCR,depot,196.5,15435.1,06:00:00,18:00:00,Mon-Fri,ACTIVE
c15b2c02-d0a9-494e-80ea-14ca4d6ea57c,PRODUCER,28.71407,77.172068,Haryana & Delhi NCR,depot,362.4,17075.5,06:00:00,18:00:00,Mon-Fri,ACTIVE
b6e83531-8fa2-4caf-b180-2d3d91db03e9,PRODUCER,28.469874,77.053033,Haryana & Delhi NCR,industrial,217.5,9305.4,06:00:00,18:00:00,Mon-Fri,ACTIVE
1c3014d8-6c46-4aad-af59-f6eda7a1e352,PRODUCER,28.588873,77.321676,Haryana & Delhi NCR,industrial,347.0,13057.2,06:00:00,18:00:00,Mon-Fri,ACTIVE
0061d01f-2043-4664-87cc-f32e20eeb600,PRODUCER,28.583527,77.32303,Haryana & Delhi NCR,industrial,109.9,7325.6,06:00:00,18:00:00,Mon-Fri,ACTIVE
04acaff2-8b20-44dc-8d45-063b0ba6490b,PRODUCER,30.113474,77.240928,Haryana & Delhi NCR,industrial,124.4,12882.0,06:00:00,18:00:00,Mon-Fri,ACTIVE
47340dc6-0b7a-4157-a20c-ebc46bb93cea,PRODUCER,30.105423,77.326417,Haryana & Delhi NCR,industrial,294.5,13298.3,06:00:00,18:00:00,Mon-Fri,ACTIVE
c4060799-83d0-4b20-89ac-997a3797c401,PRODUCER,28.97156,77.088619,Haryana & Delhi NCR,industrial,236.0,11837.5,06:00:00,18:00:00,Mon-Fri,ACTIVE
71e2fd2d-16ca-46ba-91a9-190d3dde6958,PRODUCER,28.971617,77.088602,Haryana & Delhi NCR,industrial,109.1,1581.7,06:00:00,18:00:00,Mon-Fri,ACTIVE
00d61801-d19a-4f22-9e22-dcbc83cfd91f,PRODUCER,28.233396,76.805459,Haryana & Delhi NCR,industrial,300.6,8884.0,06:00:00,18:00:00,Mon-Fri,ACTIVE
d2c6d4ff-0082-4ba2-8ff3-ad93688d8d11,PRODUCER,28.255818,76.823884,Haryana & Delhi NCR,industrial,269.8,8010.8,06:00:00,18:00:00,Mon-Fri,ACTIVE
0f7c6689-02ed-462e-9277-58996fd7bcaf,PRODUCER,28.456014,77.006411,Haryana & Delhi NCR,industrial,168.1,13611.3,06:00:00,18:00:00,Mon-Fri,ACTIVE
c06b48d7-d3c6-4094-8396-6f152863c019,CONSUMER,28.403449,77.133351,Haryana & Delhi NCR,farmland,26.6,2297.1,06:00:00,18:00:00,Mon-Fri,ACTIVE
91337baf-e5c2-4c38-9a2b-a7f7c6144877,PRODUCER,28.541058,77.398932,Haryana & Delhi NCR,industrial,123.7,7087.8,06:00:00,18:00:00,Mon-Fri,ACTIVE
3e14d634-b978-4eee-89e5-3725b3ef01d6,PRODUCER,28.345496,77.359928,Haryana & Delhi NCR,industrial,95.8,2107.2,06:00:00,18:00:00,Mon-Fri,ACTIVE
f1852e90-e44e-4227-bb8a-a0ec365c9f05,PRODUCER,28.590378,77.332208,Haryana & Delhi NCR,textile,126.4,14682.3,06:00:00,18:00:00,Mon-Fri,ACTIVE
4efab84d-b326-461a-8828-d60331731467,PRODUCER,28.580782,77.318855,Haryana & Delhi NCR,digital_marketing_agency,346.9,17770.6,06:00:00,18:00:00,Mon-Fri,ACTIVE
d6fad68a-7993-4aa6-8405-05dab34e7edb,PRODUCER,28.586858,77.327393,Haryana & Delhi NCR,industrial,381.9,9320.9,06:00:00,18:00:00,Mon-Fri,ACTIVE
ec032632-9f75-4ddf-8426-89427b0c40e0,PRODUCER,28.598705,77.334628,Haryana & Delhi NCR,industrial,207.0,6989.8,06:00:00,18:00:00,Mon-Fri,ACTIVE
b68c0479-9d06-4c89-b916-41b6913becff,PRODUCER,28.594459,77.3265,Haryana & Delhi NCR,industrial,135.2,6945.6,06:00:00,18:00:00,Mon-Fri,ACTIVE
d848c801-4f3b-4843-b982-3412c9e9568a,PRODUCER,28.595014,77.316575,Haryana & Delhi NCR,industrial,340.0,16962.6,06:00:00,18:00:00,Mon-Fri,ACTIVE
de185107-f90b-4312-858f-0bdeda040566,PRODUCER,28.584957,77.315235,Haryana & Delhi NCR,industrial,196.1,16975.6,06:00:00,18:00:00,Mon-Fri,ACTIVE
14f241c7-3bcd-49cd-9d8b-8ad16a2e9d31,PRODUCER,28.590364,77.312391,Haryana & Delhi NCR,industrial,158.4,17258.8,06:00:00,18:00:00,Mon-Fri,ACTIVE
0f77096e-0841-438f-a111-8f0f3026886e,PRODUCER,28.604974,77.353527,Haryana & Delhi NCR,industrial,382.4,2632.6,06:00:00,18:00:00,Mon-Fri,ACTIVE
98a2e397-ef9f-4798-ae83-48576c424a67,PRODUCER,28.60239,77.367038,Haryana & Delhi NCR,industrial,385.3,8276.0,06:00:00,18:00:00,Mon-Fri,ACTIVE
1b97d930-a642-43da-a0ab-d293c0aa34d5,PRODUCER,28.608084,77.367623,Haryana & Delhi NCR,industrial,260.3,8893.9,06:00:00,18:00:00,Mon-Fri,ACTIVE
ac675d68-ed73-4960-b4b7-06a8ec642935,PRODUCER,28.605996,77.357964,Haryana & Delhi NCR,industrial,174.9,3845.2,06:00:00,18:00:00,Mon-Fri,ACTIVE
254ce22f-3f18-414f-a0a8-5c23032d6e0d,PRODUCER,28.61181,77.385331,Haryana & Delhi NCR,industrial,144.8,13028.4,06:00:00,18:00:00,Mon-Fri,ACTIVE
736d15c1-47f1-44fc-8581-5b607787f3e7,PRODUCER,28.605072,77.384888,Haryana & Delhi NCR,industrial,126.4,14608.8,06:00:00,18:00:00,Mon-Fri,ACTIVE
fa71b5a3-5525-4216-b496-9f8300e9b6b0,PRODUCER,28.622734,77.386755,Haryana & Delhi NCR,industrial,136.6,10462.6,06:00:00,18:00:00,Mon-Fri,ACTIVE
dcb02602-28de-4453-85ea-1251d59a0d68,PRODUCER,28.532443,77.407575,Haryana & Delhi NCR,industrial,325.2,10228.5,06:00:00,18:00:00,Mon-Fri,ACTIVE
58156bef-ea32-40e0-84d2-19e1440c4416,PRODUCER,28.524607,77.398322,Haryana & Delhi NCR,industrial,192.2,9639.4,06:00:00,18:00:00,Mon-Fri,ACTIVE
5e59bcd1-407d-45b4-ac76-250f486633fe,PRODUCER,28.651107,77.329905,Haryana & Delhi NCR,industrial,289.5,2338.2,06:00:00,18:00:00,Mon-Fri,ACTIVE
9d1f880d-59ee-40a7-8c26-ba02dd405551,PRODUCER,28.655448,77.335979,Haryana & Delhi NCR,industrial,198.1,4479.2,06:00:00,18:00:00,Mon-Fri,ACTIVE
bfcf5f05-f585-4659-80b7-330dae43f1a1,PRODUCER,28.655094,77.326979,Haryana & Delhi NCR,industrial,316.9,11286.9,06:00:00,18:00:00,Mon-Fri,ACTIVE
1c7d020d-4ba6-46ac-8cd6-76c5f7870540,PRODUCER,28.620755,77.300957,Haryana & Delhi NCR,depot,367.4,12037.8,06:00:00,18:00:00,Mon-Fri,ACTIVE
135078dd-e98d-4903-8e34-fed9310cb6c7,PRODUCER,28.601084,77.301177,Haryana & Delhi NCR,industrial,98.5,1343.0,06:00:00,18:00:00,Mon-Fri,ACTIVE
be440026-7947-4e6a-bef3-5b2aa1195178,PRODUCER,28.733074,77.101785,Haryana & Delhi NCR,industrial,207.2,4812.6,06:00:00,18:00:00,Mon-Fri,ACTIVE
ade64105-3b1e-41da-b4e0-3cfa37a95302,PRODUCER,28.727949,77.185723,Haryana & Delhi NCR,industrial,392.6,10525.4,06:00:00,18:00:00,Mon-Fri,ACTIVE
a79da7bb-8ffb-4e5a-a54a-b7f473b9a420,CONSUMER,28.644075,77.257398,Haryana & Delhi NCR,farmland,86.5,2074.0,06:00:00,18:00:00,Mon-Fri,ACTIVE
2389071a-c7a5-47aa-a126-f6d4b6798900,CONSUMER,28.65677,77.253181,Haryana & Delhi NCR,farmland,30.0,2552.9,06:00:00,18:00:00,Mon-Fri,ACTIVE
f822c59a-cc05-4094-b56a-7e78790af012,CONSUMER,28.659347,77.256856,Haryana & Delhi NCR,farmland,26.3,1905.6,06:00:00,18:00:00,Mon-Fri,ACTIVE
e2ea4146-9088-4461-b183-c37ccb184631,PRODUCER,28.54713,77.283458,Haryana & Delhi NCR,industrial,370.6,7692.6,06:00:00,18:00:00,Mon-Fri,ACTIVE
ed58b72e-c95b-4e75-80c7-6362d2b74fd4,PRODUCER,28.509071,77.289038,Haryana & Delhi NCR,industrial,89.8,15884.8,06:00:00,18:00:00,Mon-Fri,ACTIVE
b1b18370-9ed4-4e0f-abb7-3ed5f47d2a11,CONSUMER,28.624484,77.265248,Haryana & Delhi NCR,farmland,32.9,1587.1,06:00:00,18:00:00,Mon-Fri,ACTIVE
2c363db9-a912-44f8-9fe1-a5a475075ea6,CONSUMER,28.62063,77.270392,Haryana & Delhi NCR,farmland,28.1,3118.6,06:00:00,18:00:00,Mon-Fri,ACTIVE
3bdac901-766c-4104-a19e-6d765466ef24,PRODUCER,28.389143,77.222546,Haryana & Delhi NCR,grinding_mill,201.3,5432.6,06:00:00,18:00:00,Mon-Fri,ACTIVE
cd938d87-74b3-4487-984c-96d9f1b014c0,PRODUCER,28.930514,77.090131,Haryana & Delhi NCR,industrial,351.6,19481.5,06:00:00,18:00:00,Mon-Fri,ACTIVE
dec468e6-d3f6-41f0-a1cf-54254e538b48,PRODUCER,28.592662,77.615743,Haryana & Delhi NCR,industrial,333.2,10861.7,06:00:00,18:00:00,Mon-Fri,ACTIVE
327a88d0-87ea-4684-a0c5-1e8cd1fac314,PRODUCER,28.083184,75.398963,Haryana & Delhi NCR,industrial,153.3,11716.5,06:00:00,18:00:00,Mon-Fri,ACTIVE
18fe109d-4d17-4f69-84b4-0920a318a319,CONSUMER,28.414887,77.191487,Haryana & Delhi NCR,farmland,46.5,3513.3,06:00:00,18:00:00,Mon-Fri,ACTIVE
15b31227-9c91-46e9-91e1-64888463e182,PRODUCER,28.221725,77.301306,Haryana & Delhi NCR,industrial,205.8,4041.7,06:00:00,18:00:00,Mon-Fri,ACTIVE
a16db132-9d71-4da7-b412-21ef1a66bfa6,PRODUCER,28.22064,77.301529,Haryana & Delhi NCR,industrial,130.7,10425.3,06:00:00,18:00:00,Mon-Fri,ACTIVE
46bab747-5fc9-4d8d-9ac2-8d066a294d69,PRODUCER,28.340411,77.306641,Haryana & Delhi NCR,industrial,151.8,6029.9,06:00:00,18:00:00,Mon-Fri,ACTIVE
40646b60-e0af-4856-b675-fbdcc13399d3,PRODUCER,28.182344,76.607291,Haryana & Delhi NCR,industrial,180.5,14982.1,06:00:00,18:00:00,Mon-Fri,ACTIVE
4d023838-380f-42ca-af27-197093d0188d,PRODUCER,28.317623,77.297953,Haryana & Delhi NCR,industrial,363.0,3753.1,06:00:00,18:00:00,Mon-Fri,ACTIVE
9b4dbabc-2af3-43ec-9e9f-57f59eeb6901,PRODUCER,28.437262,77.30708,Haryana & Delhi NCR,industrial,356.6,3770.3,06:00:00,18:00:00,Mon-Fri,ACTIVE
9b31dd97-ee53-4e79-9fcb-bef4a242b3b4,PRODUCER,27.693743,75.729144,Haryana & Delhi NCR,industrial,133.2,3780.7,06:00:00,18:00:00,Mon-Fri,ACTIVE
3ad3cc2a-bd28-4bbd-8a60-99b2390cdf37,CONSUMER,30.053423,75.928415,Haryana & Delhi NCR,farmland,59.0,3700.7,06:00:00,18:00:00,Mon-Fri,ACTIVE
bb21af30-b487-4a91-9436-a40c70909a97,CONSUMER,30.061837,75.931299,Haryana & Delhi NCR,farmland,26.0,1931.8,06:00:00,18:00:00,Mon-Fri,ACTIVE
a5d32b1a-0315-480d-8da3-33b8db9fed52,CONSUMER,30.060244,75.933277,Haryana & Delhi NCR,farmland,29.0,2461.2,06:00:00,18:00:00,Mon-Fri,ACTIVE
6784e891-08ec-4a75-8133-5b50c5bba2b4,CONSUMER,30.053981,75.925917,Haryana & Delhi NCR,farmland,86.9,1598.9,06:00:00,18:00:00,Mon-Fri,ACTIVE
e7a10ce3-9204-41e2-a810-c9bf3031f514,CONSUMER,30.060775,75.928104,Haryana & Delhi NCR,farmland,54.3,1568.9,06:00:00,18:00:00,Mon-Fri,ACTIVE
1fe15359-cbc5-42b5-bdb2-119263cded5d,CONSUMER,30.053578,75.933037,Haryana & Delhi NCR,farmland,86.7,1149.6,06:00:00,18:00:00,Mon-Fri,ACTIVE
4b68b0cc-b561-4c54-af84-1491137d064d,PRODUCER,28.412729,77.305194,Haryana & Delhi NCR,industrial,169.6,16977.6,06:00:00,18:00:00,Mon-Fri,ACTIVE
b331a42e-7fd8-45c0-822b-21c56d5d7356,PRODUCER,28.358187,77.308582,Haryana & Delhi NCR,industrial,175.1,17072.4,06:00:00,18:00:00,Mon-Fri,ACTIVE
8802a652-d389-4f1c-8f48-512eebd3d5c2,PRODUCER,28.347936,77.308543,Haryana & Delhi NCR,industrial,206.4,11119.9,06:00:00,18:00:00,Mon-Fri,ACTIVE
da391e65-696d-44c9-8df8-e2b8e13efceb,PRODUCER,28.616765,77.252448,Haryana & Delhi NCR,industrial,391.3,8665.6,06:00:00,18:00:00,Mon-Fri,ACTIVE
caf9edcc-62a0-4b4b-aee4-82d711ed39ae,PRODUCER,28.587865,77.265693,Haryana & Delhi NCR,industrial,204.8,4020.7,06:00:00,18:00:00,Mon-Fri,ACTIVE
6dd66461-1372-4d1b-bacb-27ed63fd4028,PRODUCER,28.619035,77.250216,Haryana & Delhi NCR,industrial,337.3,18042.0,06:00:00,18:00:00,Mon-Fri,ACTIVE
5c4b8b5b-80af-4419-881e-787419ecdc4c,PRODUCER,28.624106,77.249827,Haryana & Delhi NCR,industrial,241.9,12049.8,06:00:00,18:00:00,Mon-Fri,ACTIVE
00f326b9-7911-4311-96a5-0812ce72a750,PRODUCER,28.216812,77.298406,Haryana & Delhi NCR,industrial,230.6,14943.0,06:00:00,18:00:00,Mon-Fri,ACTIVE
324000ed-85a3-4b06-a9b7-86d1ea1d6f66,CONSUMER,28.441034,77.032286,Haryana & Delhi NCR,farmland,70.0,1887.7,06:00:00,18:00:00,Mon-Fri,ACTIVE
94d42b8f-3a81-49f5-b4d8-b5ba5e26813d,CONSUMER,28.412992,77.186792,Haryana & Delhi NCR,farmland,54.0,3233.5,06:00:00,18:00:00,Mon-Fri,ACTIVE
d485fb99-c8b4-431b-ad7c-1f53bb74e856,PRODUCER,28.345523,77.08713,Haryana & Delhi NCR,industrial,130.8,9966.4,06:00:00,18:00:00,Mon-Fri,ACTIVE
4fcce7b7-0e5c-4c64-9147-818847a9ab25,PRODUCER,28.331167,77.336605,Haryana & Delhi NCR,industrial,195.7,10869.5,06:00:00,18:00:00,Mon-Fri,ACTIVE
2335bc76-9f1d-4f5c-bf95-e8172629077d,PRODUCER,28.352991,77.268818,Haryana & Delhi NCR,industrial,85.5,2981.3,06:00:00,18:00:00,Mon-Fri,ACTIVE
0d45a511-71a8-40c4-98af-f20c960d9edf,PRODUCER,28.495985,77.07791,Haryana & Delhi NCR,industrial,118.1,10051.5,06:00:00,18:00:00,Mon-Fri,ACTIVE
73697c20-b442-4495-bb7c-d85dba180c7f,PRODUCER,28.385811,77.283821,Haryana & Delhi NCR,industrial,348.8,13151.8,06:00:00,18:00:00,Mon-Fri,ACTIVE
851aa5d7-036e-4e25-9c7a-340653a6dcee,PRODUCER,28.368196,77.319557,Haryana & Delhi NCR,industrial,355.4,3885.4,06:00:00,18:00:00,Mon-Fri,ACTIVE
0ec7b0d5-8a61-4cd1-ac4f-a8520091025a,PRODUCER,28.418435,77.314323,Haryana & Delhi NCR,industrial,196.2,4752.9,06:00:00,18:00:00,Mon-Fri,ACTIVE
1387aa79-fa81-4a03-957d-ab318f23dd83,PRODUCER,28.273928,77.268886,Haryana & Delhi NCR,industrial,256.7,2508.3,06:00:00,18:00:00,Mon-Fri,ACTIVE
7b582732-f5d2-449a-b1f8-ac24ffd05032,PRODUCER,28.262907,77.285711,Haryana & Delhi NCR,industrial,155.6,6990.1,06:00:00,18:00:00,Mon-Fri,ACTIVE
c5a2b5e9-db01-4ef8-978f-72ab2c476fed,PRODUCER,28.273545,77.267596,Haryana & Delhi NCR,industrial,218.7,2560.0,06:00:00,18:00:00,Mon-Fri,ACTIVE
d6674f6e-1cb0-4a2c-a101-88b26141f540,PRODUCER,28.274909,77.27462,Haryana & Delhi NCR,industrial,250.0,13442.5,06:00:00,18:00:00,Mon-Fri,ACTIVE
1c57ced8-8b15-4511-ba05-794643d3477c,PRODUCER,28.272344,77.267521,Haryana & Delhi NCR,industrial,289.8,4735.5,06:00:00,18:00:00,Mon-Fri,ACTIVE
59aa5feb-1e3d-4c1d-9713-f7c491bf9386,PRODUCER,28.275151,77.27343,Haryana & Delhi NCR,industrial,320.3,11389.9,06:00:00,18:00:00,Mon-Fri,ACTIVE
d44afc66-261c-4e15-bb2b-26adfce5f55f,PRODUCER,28.274379,77.272698,Haryana & Delhi NCR,industrial,91.9,11942.2,06:00:00,18:00:00,Mon-Fri,ACTIVE
6d9404cd-f41a-41ae-ac6a-d22227665dee,CONSUMER,28.400124,77.139308,Haryana & Delhi NCR,farmland,48.5,2689.9,06:00:00,18:00:00,Mon-Fri,ACTIVE
a0af9528-c771-4bd2-a014-b8d6713bece2,CONSUMER,28.394355,77.143592,Haryana & Delhi NCR,farmland,87.1,3379.2,06:00:00,18:00:00,Mon-Fri,ACTIVE
4e6697dc-a86b-450c-9ee1-967d228860e3,CONSUMER,28.394963,77.140762,Haryana & Delhi NCR,farmland,72.1,2229.4,06:00:00,18:00:00,Mon-Fri,ACTIVE
7caeff3f-eda0-427d-9468-08d15268c3a2,CONSUMER,28.399468,77.135812,Haryana & Delhi NCR,farmland,89.7,2887.7,06:00:00,18:00:00,Mon-Fri,ACTIVE
d095a38f-4c92-458c-acaf-b91f5046cc47,CONSUMER,28.399604,77.144,Haryana & Delhi NCR,farmland,26.0,3900.7,06:00:00,18:00:00,Mon-Fri,ACTIVE
cea2cf04-5dd5-4f58-a932-f9ad8312029c,PRODUCER,28.889581,75.848465,Haryana & Delhi NCR,industrial,371.7,7816.6,06:00:00,18:00:00,Mon-Fri,ACTIVE
b9309fbb-722c-48ca-bfd8-4f1d3ec57ed8,PRODUCER,29.315228,76.291836,Haryana & Delhi NCR,industrial,285.1,8985.5,06:00:00,18:00:00,Mon-Fri,ACTIVE
e3dadba8-d36c-4e76-a8e0-4854d31f8ce4,PRODUCER,28.891278,75.871824,Haryana & Delhi NCR,industrial,178.1,6538.0,06:00:00,18:00:00,Mon-Fri,ACTIVE
d86e823e-6f47-4725-843e-0bd1508d03bd,PRODUCER,28.89875,75.881556,Haryana & Delhi NCR,industrial,231.0,18903.3,06:00:00,18:00:00,Mon-Fri,ACTIVE
27e01f60-f363-476f-8047-37f4a5996dbb,PRODUCER,28.913618,75.852104,Haryana & Delhi NCR,industrial,315.1,7362.2,06:00:00,18:00:00,Mon-Fri,ACTIVE
42e4f9f2-f783-4970-b58d-457a4a9d8e90,PRODUCER,28.207437,77.059563,Haryana & Delhi NCR,industrial,278.5,11753.2,06:00:00,18:00:00,Mon-Fri,ACTIVE
5e79bc51-d4ed-490a-8da6-4a7540def53b,PRODUCER,28.200432,76.864133,Haryana & Delhi NCR,industrial,324.4,18844.9,06:00:00,18:00:00,Mon-Fri,ACTIVE
154becd4-46a1-4601-92f4-36c0c9a472b2,PRODUCER,28.212621,76.865733,Haryana & Delhi NCR,industrial,92.8,6342.0,06:00:00,18:00:00,Mon-Fri,ACTIVE
e1ffb650-4224-4faf-905c-72ad7745129f,PRODUCER,28.485443,77.533192,Haryana & Delhi NCR,industrial,262.8,8619.3,06:00:00,18:00:00,Mon-Fri,ACTIVE
d28b51c0-ad32-49d1-b8db-799570153d14,PRODUCER,28.033782,77.254639,Haryana & Delhi NCR,industrial,163.1,2065.9,06:00:00,18:00:00,Mon-Fri,ACTIVE
03d0a693-e3f9-4ffa-9ff8-bff13289b67b,PRODUCER,28.647424,77.433491,Haryana & Delhi NCR,industrial,171.6,14422.3,06:00:00,18:00:00,Mon-Fri,ACTIVE
e9254fa9-82f2-4390-8480-72b8054dfc3d,PRODUCER,28.87613,77.109778,Haryana & Delhi NCR,industrial,220.4,13918.9,06:00:00,18:00:00,Mon-Fri,ACTIVE
c0ed5f79-6071-42c2-b49d-7ea62740956c,PRODUCER,28.696653,77.579874,Haryana & Delhi NCR,industrial,323.6,19895.1,06:00:00,18:00:00,Mon-Fri,ACTIVE
ef32f7a2-173e-4574-827f-b2f02c50d110,PRODUCER,28.677309,77.0229,Haryana & Delhi NCR,industrial,386.4,7420.6,06:00:00,18:00:00,Mon-Fri,ACTIVE
36e7b018-c476-4fe8-9269-62649549bcb5,PRODUCER,28.385605,77.316248,Haryana & Delhi NCR,industrial,344.4,1576.8,06:00:00,18:00:00,Mon-Fri,ACTIVE
b495158a-13bb-41ca-b1c4-8db9fafd4d43,PRODUCER,28.68447,77.330645,Haryana & Delhi NCR,depot,86.2,16925.6,06:00:00,18:00:00,Mon-Fri,ACTIVE
5d5125e1-dabc-47c6-ae2d-981729d77634,PRODUCER,28.686214,77.435029,Haryana & Delhi NCR,industrial,311.0,14605.9,06:00:00,18:00:00,Mon-Fri,ACTIVE
d378ae29-d6e7-4057-b277-7460294d47a3,PRODUCER,28.684966,77.114722,Haryana & Delhi NCR,industrial,315.4,7730.9,06:00:00,18:00:00,Mon-Fri,ACTIVE
55526bb6-4431-4216-8ae3-b365853496fa,PRODUCER,28.677502,77.128359,Haryana & Delhi NCR,industrial,267.4,18646.9,06:00:00,18:00:00,Mon-Fri,ACTIVE
c5784097-860f-475b-ab39-099511278d48,PRODUCER,28.358059,77.308167,Haryana & Delhi NCR,industrial,146.0,17692.9,06:00:00,18:00:00,Mon-Fri,ACTIVE
6345ad34-87cc-455a-9b6c-406f232d3717,PRODUCER,28.310689,77.309199,Haryana & Delhi NCR,industrial,244.5,15167.3,06:00:00,18:00:00,Mon-Fri,ACTIVE
1fd9e784-a885-45f0-a593-a579031d9933,PRODUCER,28.358732,77.305081,Haryana & Delhi NCR,industrial,366.3,8724.9,06:00:00,18:00:00,Mon-Fri,ACTIVE
3e23a516-3026-4c77-bc13-5cc5620b8bf9,PRODUCER,28.348627,77.302939,Haryana & Delhi NCR,industrial,343.5,5907.2,06:00:00,18:00:00,Mon-Fri,ACTIVE
2879ca7a-7ff6-44ae-9c65-0a43e853aac1,PRODUCER,28.478699,76.375398,Haryana & Delhi NCR,industrial,385.4,6391.4,06:00:00,18:00:00,Mon-Fri,ACTIVE
6acce4ee-6ce8-47ff-a1bd-257b3cbb8ba9,PRODUCER,28.482225,76.375697,Haryana & Delhi NCR,industrial,113.2,10305.8,06:00:00,18:00:00,Mon-Fri,ACTIVE
40180451-9055-41b7-b87d-5305c280c843,PRODUCER,28.491081,76.349556,Haryana & Delhi NCR,industrial,162.7,16932.3,06:00:00,18:00:00,Mon-Fri,ACTIVE
a311d683-5a97-43c9-b2c0-bcc37ccfcd70,PRODUCER,28.220455,76.579798,Haryana & Delhi NCR,industrial,300.7,3261.7,06:00:00,18:00:00,Mon-Fri,ACTIVE
816f7095-754d-4f57-9b12-1a3b755f51f0,PRODUCER,28.141726,76.597649,Haryana & Delhi NCR,industrial,383.5,14983.5,06:00:00,18:00:00,Mon-Fri,ACTIVE
fb11eb4e-0302-485b-9225-65eb500ff491,PRODUCER,28.799499,76.162839,Haryana & Delhi NCR,industrial,170.6,1585.7,06:00:00,18:00:00,Mon-Fri,ACTIVE
23b840a5-158e-44b9-9883-0286ac136cd1,PRODUCER,28.799267,76.153676,Haryana & Delhi NCR,industrial,336.9,10422.3,06:00:00,18:00:00,Mon-Fri,ACTIVE
3a5f9f46-709e-4d2d-9727-6832338b987f,PRODUCER,28.806367,76.123534,Haryana & Delhi NCR,industrial,218.6,16316.6,06:00:00,18:00:00,Mon-Fri,ACTIVE
b4aaf3a3-f43b-48e9-be7b-dcf711838a00,PRODUCER,28.808014,76.124431,Haryana & Delhi NCR,industrial,227.4,2843.7,06:00:00,18:00:00,Mon-Fri,ACTIVE
a70db970-a6f1-400b-a098-5594e2171cf9,PRODUCER,28.895243,76.547135,Haryana & Delhi NCR,industrial,261.0,8384.9,06:00:00,18:00:00,Mon-Fri,ACTIVE
71515514-f980-4de6-875e-2731e2564b37,PRODUCER,29.851037,77.262121,Haryana & Delhi NCR,industrial,216.1,18212.4,06:00:00,18:00:00,Mon-Fri,ACTIVE
de938f10-901d-4e9b-9d92-a301649f65ac,PRODUCER,29.956179,77.534706,Haryana & Delhi NCR,industrial,282.8,18867.3,06:00:00,18:00:00,Mon-Fri,ACTIVE
a5f73536-71ea-48f9-89b0-3e94d9cc9996,PRODUCER,29.938128,77.56936,Haryana & Delhi NCR,industrial,195.2,5026.5,06:00:00,18:00:00,Mon-Fri,ACTIVE
c6bfbe33-afbb-464e-8fcb-dc7dc817b791,PRODUCER,28.435388,77.306061,Haryana & Delhi NCR,industrial,90.9,18188.8,06:00:00,18:00:00,Mon-Fri,ACTIVE
e2e2f128-9e0a-4880-9a69-aaf063901db8,PRODUCER,28.228489,77.309132,Haryana & Delhi NCR,industrial,270.3,15743.2,06:00:00,18:00:00,Mon-Fri,ACTIVE
fcd65b63-634c-4222-8e29-66874cc722d4,PRODUCER,28.208994,77.061796,Haryana & Delhi NCR,industrial,316.9,6050.5,06:00:00,18:00:00,Mon-Fri,ACTIVE
cacebf98-fd77-4b2e-8ce7-953fbaf2d958,PRODUCER,28.365592,76.880374,Haryana & Delhi NCR,industrial,217.6,1426.7,06:00:00,18:00:00,Mon-Fri,ACTIVE
1e30f332-24d5-4e33-b34c-74935a28becb,PRODUCER,28.365602,76.879602,Haryana & Delhi NCR,industrial,132.7,4349.3,06:00:00,18:00:00,Mon-Fri,ACTIVE
8738827a-d7bc-45e4-9ab5-7743f53ebe28,PRODUCER,29.534157,75.076769,Haryana & Delhi NCR,industrial,324.6,16316.6,06:00:00,18:00:00,Mon-Fri,ACTIVE
1ea66b8a-ab8c-431b-ae0c-f1863e08f50e,PRODUCER,29.530193,75.054556,Haryana & Delhi NCR,industrial,237.4,11395.0,06:00:00,18:00:00,Mon-Fri,ACTIVE
1382fa90-7172-4e8d-ae2b-7ed4ed63f7e2,CONSUMER,28.609551,76.977167,Haryana & Delhi NCR,farmland,88.6,2613.2,06:00:00,18:00:00,Mon-Fri,ACTIVE
dc316680-ab67-4ccd-8e23-c889204d0070,CONSUMER,28.610705,76.978243,Haryana & Delhi NCR,farmland,57.1,3213.0,06:00:00,18:00:00,Mon-Fri,ACTIVE
9a5ef68e-2891-4aa7-be82-310fa6beae9b,PRODUCER,29.137964,77.012722,Haryana & Delhi NCR,industrial,265.4,8107.9,06:00:00,18:00:00,Mon-Fri,ACTIVE
9ed97009-57e1-48d7-b758-88d6f37fe076,PRODUCER,28.509748,77.421159,Haryana & Delhi NCR,industrial,214.1,8789.3,06:00:00,18:00:00,Mon-Fri,ACTIVE
1c2bee06-6979-4126-82fa-7bc92844613a,PRODUCER,28.518708,77.404683,Haryana & Delhi NCR,industrial,355.4,8618.5,06:00:00,18:00:00,Mon-Fri,ACTIVE
75b24179-e637-4945-9cdc-503af2586281,PRODUCER,28.528762,77.42455,Haryana & Delhi NCR,industrial,88.9,14722.4,06:00:00,18:00:00,Mon-Fri,ACTIVE
d5751b01-482a-46fa-b79c-efa092098076,PRODUCER,28.513591,77.412261,Haryana & Delhi NCR,industrial,85.7,1829.3,06:00:00,18:00:00,Mon-Fri,ACTIVE
666f3282-be10-4db9-b652-d4c8e52f489c,PRODUCER,28.446445,77.535502,Haryana & Delhi NCR,factory,217.9,14362.1,06:00:00,18:00:00,Mon-Fri,ACTIVE
216a96da-7441-4fef-8242-8ba3e1b5b9e3,PRODUCER,28.449327,77.541484,Haryana & Delhi NCR,industrial,317.7,14190.2,06:00:00,18:00:00,Mon-Fri,ACTIVE
e4bb3b41-f4ca-420f-b1f4-404ce4ed9449,PRODUCER,28.454121,77.536781,Haryana & Delhi NCR,industrial,82.1,4675.8,06:00:00,18:00:00,Mon-Fri,ACTIVE
c6321865-ae61-476d-affe-5ae348168322,PRODUCER,28.451348,77.529928,Haryana & Delhi NCR,industrial,313.1,8321.2,06:00:00,18:00:00,Mon-Fri,ACTIVE
ba179d80-f765-495b-9846-1b9027e32837,PRODUCER,28.456164,77.5268,Haryana & Delhi NCR,industrial,80.0,17217.6,06:00:00,18:00:00,Mon-Fri,ACTIVE
4e3d54da-41fe-4dd6-be0d-cda98ffe9880,PRODUCER,28.307165,77.298181,Haryana & Delhi NCR,industrial,381.6,9478.2,06:00:00,18:00:00,Mon-Fri,ACTIVE
64326054-c166-43d1-87c1-7a8ea4b859ba,PRODUCER,28.685751,77.099025,Haryana & Delhi NCR,industrial,129.6,1024.5,06:00:00,18:00:00,Mon-Fri,ACTIVE
82d128c5-f043-4751-a28f-3b97b6e05ba3,PRODUCER,28.680936,77.147006,Haryana & Delhi NCR,industrial,343.1,7546.2,06:00:00,18:00:00,Mon-Fri,ACTIVE
1e55fc07-f3c7-4dbb-b307-e77d4fb82e09,PRODUCER,28.693871,77.156014,Haryana & Delhi NCR,depot,290.8,1118.7,06:00:00,18:00:00,Mon-Fri,ACTIVE
5bed1c4d-b823-4913-bd93-d5d829374587,PRODUCER,28.68587,77.08916,Haryana & Delhi NCR,industrial,249.5,19600.5,06:00:00,18:00:00,Mon-Fri,ACTIVE
3e9a5fb1-4826-4cbe-a9ec-08694797e90e,PRODUCER,28.796457,77.07174,Haryana & Delhi NCR,industrial,303.5,18105.9,06:00:00,18:00:00,Mon-Fri,ACTIVE
5ce985ab-7248-47ae-a67f-6834e627b6fb,PRODUCER,28.435081,77.307252,Haryana & Delhi NCR,industrial,227.8,16014.5,06:00:00,18:00:00,Mon-Fri,ACTIVE
e5b2792a-7fb4-418a-9082-1ce9de2c16f3,PRODUCER,28.391802,77.313472,Haryana & Delhi NCR,industrial,390.4,19181.8,06:00:00,18:00:00,Mon-Fri,ACTIVE
6f598d50-f087-44ba-8d66-20b011c6a2b9,PRODUCER,28.389679,77.314757,Haryana & Delhi NCR,industrial,130.8,1697.3,06:00:00,18:00:00,Mon-Fri,ACTIVE
7ff8542b-2605-489b-9dee-0d46c5374638,PRODUCER,28.361325,77.319053,Haryana & Delhi NCR,industrial,277.5,13187.6,06:00:00,18:00:00,Mon-Fri,ACTIVE
71501561-366f-45dd-b78d-6cc71e485271,PRODUCER,28.351056,77.320172,Haryana & Delhi NCR,industrial,91.6,7993.0,06:00:00,18:00:00,Mon-Fri,ACTIVE
7720b413-5948-49d2-8243-e5f05b52c44a,PRODUCER,28.308815,77.30781,Haryana & Delhi NCR,industrial,181.0,15641.3,06:00:00,18:00:00,Mon-Fri,ACTIVE
24ce5a8c-30a7-452b-a558-99c88e38fcba,PRODUCER,28.345676,77.314334,Haryana & Delhi NCR,industrial,247.6,2124.5,06:00:00,18:00:00,Mon-Fri,ACTIVE
c9c5185e-df89-45f6-96d1-ee1d18a9b4a1,PRODUCER,28.337701,77.314363,Haryana & Delhi NCR,industrial,290.2,6277.7,06:00:00,18:00:00,Mon-Fri,ACTIVE
fe0e94e6-a87c-4c4b-b84c-f5e3b6268ea9,PRODUCER,28.335115,77.307992,Haryana & Delhi NCR,industrial,133.0,6793.5,06:00:00,18:00:00,Mon-Fri,ACTIVE
6aa8334c-7536-48a9-8e1b-3cc9b0b9fb87,PRODUCER,28.359065,77.304955,Haryana & Delhi NCR,machine_shop,348.1,1766.3,06:00:00,18:00:00,Mon-Fri,ACTIVE
622080ea-0694-45d9-a202-528be5fb1718,PRODUCER,28.372758,77.31176,Haryana & Delhi NCR,industrial,292.8,19666.0,06:00:00,18:00:00,Mon-Fri,ACTIVE
6e8ab5f1-a671-42e0-9370-26ba2b48ecbe,PRODUCER,28.374927,77.293759,Haryana & Delhi NCR,industrial,210.6,17618.6,06:00:00,18:00:00,Mon-Fri,ACTIVE
94094449-389e-4e36-b51c-b2e8499e7362,PRODUCER,28.375382,77.302436,Haryana & Delhi NCR,industrial,257.7,6559.4,06:00:00,18:00:00,Mon-Fri,ACTIVE
7839bbee-6d68-4637-a2d8-6e2957074976,PRODUCER,28.504445,77.307913,Haryana & Delhi NCR,industrial,227.8,18129.8,06:00:00,18:00:00,Mon-Fri,ACTIVE
26fe01f7-b6ef-4355-b105-a428cd345b15,PRODUCER,28.621919,77.287544,Haryana & Delhi NCR,industrial,380.0,17662.6,06:00:00,18:00:00,Mon-Fri,ACTIVE
4a5d2333-fd37-4251-a21e-12af3da39ee1,PRODUCER,28.675498,77.374388,Haryana & Delhi NCR,industrial,153.8,3229.5,06:00:00,18:00:00,Mon-Fri,ACTIVE
1450b59a-8d95-4721-bd68-47fa6f9446d3,PRODUCER,29.104722,75.856957,Haryana & Delhi NCR,industrial,382.3,15839.2,06:00:00,18:00:00,Mon-Fri,ACTIVE
2e730aa6-fe46-49c8-8283-0f8b18af7b09,PRODUCER,29.115186,75.81467,Haryana & Delhi NCR,industrial,184.4,3369.7,06:00:00,18:00:00,Mon-Fri,ACTIVE
c549ae66-9b2d-4077-8764-8690834a81b7,PRODUCER,29.128647,75.796664,Haryana & Delhi NCR,industrial,186.1,1699.3,06:00:00,18:00:00,Mon-Fri,ACTIVE
566c99cb-1c34-4ee2-8dff-db27b6dd65e5,PRODUCER,29.126182,75.777128,Haryana & Delhi NCR,industrial,320.2,6436.4,06:00:00,18:00:00,Mon-Fri,ACTIVE
e51231e0-58f3-48ae-a236-8a447716b12b,PRODUCER,29.128754,75.764128,Haryana & Delhi NCR,industrial,361.1,5705.1,06:00:00,18:00:00,Mon-Fri,ACTIVE
b2301ba9-a410-44e4-ab50-90aea54235ce,PRODUCER,29.127287,75.779861,Haryana & Delhi NCR,industrial,86.0,10546.1,06:00:00,18:00:00,Mon-Fri,ACTIVE
fcadc0d3-2477-4383-9809-d66ff864883b,PRODUCER,29.122261,75.772071,Haryana & Delhi NCR,industrial,377.7,7748.4,06:00:00,18:00:00,Mon-Fri,ACTIVE
2b9eb637-90ef-4f58-876c-dab7f76afe89,CONSUMER,29.119629,75.789,Haryana & Delhi NCR,farmland,25.2,2685.8,06:00:00,18:00:00,Mon-Fri,ACTIVE
7c2c5adb-f378-4165-8b46-50bc4d20c044,PRODUCER,29.131672,75.755206,Haryana & Delhi NCR,industrial,119.7,6627.5,06:00:00,18:00:00,Mon-Fri,ACTIVE
7486262d-536a-4e1c-b740-94f6ef37c227,PRODUCER,29.132012,75.749357,Haryana & Delhi NCR,industrial,293.0,18425.0,06:00:00,18:00:00,Mon-Fri,ACTIVE
92a0cb7d-8a97-4f33-ae61-f6d422822f72,CONSUMER,29.120894,75.779566,Haryana & Delhi NCR,farmland,39.4,3123.3,06:00:00,18:00:00,Mon-Fri,ACTIVE
38ad9b32-7b61-4848-ae60-3a7484e2539c,PRODUCER,29.12472,75.769689,Haryana & Delhi NCR,industrial,284.1,16443.7,06:00:00,18:00:00,Mon-Fri,ACTIVE
c2b91e8a-f45a-45d8-892e-2e9a31cac4e4,PRODUCER,29.167392,75.756568,Haryana & Delhi NCR,industrial,365.6,11325.2,06:00:00,18:00:00,Mon-Fri,ACTIVE
78cdc4c9-315a-4805-b5b4-5dedec3540a7,PRODUCER,29.134056,75.772298,Haryana & Delhi NCR,industrial,107.5,9531.2,06:00:00,18:00:00,Mon-Fri,ACTIVE
2ba46bb0-ba8e-486f-ace7-596f438c6293,PRODUCER,29.349086,75.86274,Haryana & Delhi NCR,industrial,87.1,14258.5,06:00:00,18:00:00,Mon-Fri,ACTIVE
754af046-98a4-4d75-92ee-a7ed0868bce0,PRODUCER,29.321461,76.294796,Haryana & Delhi NCR,industrial,322.0,6702.3,06:00:00,18:00:00,Mon-Fri,ACTIVE
1475e760-ce48-4222-bdf6-a5cf8b801c46,PRODUCER,28.451164,77.311327,Haryana & Delhi NCR,industrial,92.8,4348.9,06:00:00,18:00:00,Mon-Fri,ACTIVE
7ca9b385-a228-4c23-8802-f6dcb7dcdf22,PRODUCER,28.468905,77.304117,Haryana & Delhi NCR,industrial,155.7,18057.0,06:00:00,18:00:00,Mon-Fri,ACTIVE
eed32745-e246-4900-865a-c6690f7011e8,PRODUCER,28.465001,77.30939,Haryana & Delhi NCR,industrial,183.9,3448.7,06:00:00,18:00:00,Mon-Fri,ACTIVE
a7236096-c771-44cc-82cc-11b159597b01,PRODUCER,28.481356,77.302803,Haryana & Delhi NCR,industrial,287.1,12305.8,06:00:00,18:00:00,Mon-Fri,ACTIVE
93658bc1-7652-40f9-a66e-c3a6f4e03ccf,PRODUCER,28.473401,77.298497,Haryana & Delhi NCR,industrial,371.8,11340.8,06:00:00,18:00:00,Mon-Fri,ACTIVE
a94ddb0f-ee74-4d4f-b946-b06af16c1fe5,PRODUCER,28.36563,76.881517,Haryana & Delhi NCR,industrial,283.8,18851.5,06:00:00,18:00:00,Mon-Fri,ACTIVE
cb75a7e5-d6ed-4412-aae3-844657abea57,PRODUCER,28.822345,77.126011,Haryana & Delhi NCR,communication,196.7,11339.2,06:00:00,18:00:00,Mon-Fri,ACTIVE
f9786c90-736b-4bb0-a00c-7b94e63d4159,PRODUCER,28.435587,77.01482,Haryana & Delhi NCR,factory,221.5,15451.5,06:00:00,18:00:00,Mon-Fri,ACTIVE
c437a915-04f9-491e-95f9-f2fe51b153bf,PRODUCER,28.432464,77.017173,Haryana & Delhi NCR,industrial,389.5,5508.2,06:00:00,18:00:00,Mon-Fri,ACTIVE
1d05dcfa-3f27-4938-a5b2-1412d628b1f1,PRODUCER,28.209011,77.059054,Haryana & Delhi NCR,industrial,394.2,19587.3,06:00:00,18:00:00,Mon-Fri,ACTIVE
63f7cf81-be68-40ee-ab7b-ea890ebe58af,PRODUCER,28.51537,77.506024,Haryana & Delhi NCR,industrial,277.9,3605.6,06:00:00,18:00:00,Mon-Fri,ACTIVE
d045a2f4-685f-4d40-85c7-a39d448bc061,PRODUCER,28.516123,77.517701,Haryana & Delhi NCR,industrial,135.7,9829.1,06:00:00,18:00:00,Mon-Fri,ACTIVE
26b4cdd7-520e-4040-a8c1-4fa7e91f8ced,PRODUCER,28.521725,77.465453,Haryana & Delhi NCR,industrial,246.7,14432.2,06:00:00,18:00:00,Mon-Fri,ACTIVE
139e9160-d09b-4695-bf56-e47805fe51fd,PRODUCER,28.618543,77.47418,Haryana & Delhi NCR,industrial,292.2,19493.1,06:00:00,18:00:00,Mon-Fri,ACTIVE
5ea34809-5496-4266-9924-838c538bd242,PRODUCER,28.568255,77.541113,Haryana & Delhi NCR,industrial,97.6,8451.4,06:00:00,18:00:00,Mon-Fri,ACTIVE
1ba07a2e-9a52-4ad7-8412-ab5bec0e7afc,PRODUCER,28.610536,77.497201,Haryana & Delhi NCR,industrial,178.7,6811.8,06:00:00,18:00:00,Mon-Fri,ACTIVE
5ae9e5d6-dbdc-40fd-9946-cab947299999,PRODUCER,28.632051,77.464603,Haryana & Delhi NCR,industrial,197.2,15819.5,06:00:00,18:00:00,Mon-Fri,ACTIVE
e5418d53-17dc-4e5e-8228-5da6272a4b18,PRODUCER,28.292903,76.855516,Haryana & Delhi NCR,industrial,277.8,6786.2,06:00:00,18:00:00,Mon-Fri,ACTIVE
edbfc501-bf63-41a1-b2bc-aa01bb2b9359,PRODUCER,28.228825,76.806113,Haryana & Delhi NCR,industrial,129.5,3280.1,06:00:00,18:00:00,Mon-Fri,ACTIVE
7f3a7d92-c86f-4335-b875-5af903462f86,PRODUCER,28.214653,76.782978,Haryana & Delhi NCR,industrial,389.2,17196.6,06:00:00,18:00:00,Mon-Fri,ACTIVE
b909cc1d-59f1-4d3c-9185-652c36a9358a,PRODUCER,28.233661,76.803342,Haryana & Delhi NCR,industrial,384.9,4179.4,06:00:00,18:00:00,Mon-Fri,ACTIVE
819df340-7581-49fb-8a73-af8973a931de,PRODUCER,28.007272,76.461163,Haryana & Delhi NCR,industrial,184.2,5414.9,06:00:00,18:00:00,Mon-Fri,ACTIVE
35635c77-e552-40e4-a8bb-5feb0c2bf2c6,PRODUCER,28.311849,76.876536,Haryana & Delhi NCR,industrial,354.8,13907.0,06:00:00,18:00:00,Mon-Fri,ACTIVE
7a6865bb-7aa8-4740-8d5d-1cb66fbc39c1,PRODUCER,28.395284,76.853925,Haryana & Delhi NCR,industrial,131.4,2166.4,06:00:00,18:00:00,Mon-Fri,ACTIVE
83fe2468-02a8-4c68-8048-4f6b000372e8,PRODUCER,28.014824,76.470473,Haryana & Delhi NCR,industrial,346.2,7439.2,06:00:00,18:00:00,Mon-Fri,ACTIVE
5e1ee506-5103-49c8-b3e2-5b6c9c064da5,PRODUCER,28.758317,77.515868,Haryana & Delhi NCR,industrial,277.3,10243.9,06:00:00,18:00:00,Mon-Fri,ACTIVE
b3f79f3e-dfd8-48b3-8e3b-c177870ee6ee,PRODUCER,28.517353,77.285018,Haryana & Delhi NCR,industrial,317.8,16840.4,06:00:00,18:00:00,Mon-Fri,ACTIVE
4652ad97-3428-4d22-adb8-49bf17482a06,PRODUCER,28.579352,77.230333,Haryana & Delhi NCR,depot,161.8,9771.3,06:00:00,18:00:00,Mon-Fri,ACTIVE
426d80c7-d121-4c1a-b32f-a50febbfe72a,PRODUCER,28.822824,77.565047,Haryana & Delhi NCR,industrial,91.8,1972.1,06:00:00,18:00:00,Mon-Fri,ACTIVE
e5273bf2-8a96-489c-aaab-f9f21f8dcbc0,PRODUCER,28.774681,77.120659,Haryana & Delhi NCR,industrial,359.6,4016.8,06:00:00,18:00:00,Mon-Fri,ACTIVE
ac19c7d4-9a05-4d7e-a5a0-2e720d988b30,PRODUCER,28.795838,77.14803,Haryana & Delhi NCR,industrial,203.7,16247.0,06:00:00,18:00:00,Mon-Fri,ACTIVE
3c2ec39f-464e-4bb5-a340-343184a95792,PRODUCER,28.846935,77.581452,Haryana & Delhi NCR,industrial,397.3,10341.4,06:00:00,18:00:00,Mon-Fri,ACTIVE
63de8154-61cd-4fce-97e0-8b5a5c4fe84f,PRODUCER,28.775948,77.145621,Haryana & Delhi NCR,industrial,275.4,15570.8,06:00:00,18:00:00,Mon-Fri,ACTIVE
33439f9d-bb85-4181-babf-a6f8d56d9f9c,PRODUCER,28.689374,76.98383,Haryana & Delhi NCR,industrial,385.4,14333.8,06:00:00,18:00:00,Mon-Fri,ACTIVE
39de27ce-2137-4e5d-9898-574b080d95e5,PRODUCER,28.709608,76.888032,Haryana & Delhi NCR,industrial,362.3,10476.6,06:00:00,18:00:00,Mon-Fri,ACTIVE
4df837df-5c46-44de-9a2a-a324b581aad8,PRODUCER,28.698784,76.92072,Haryana & Delhi NCR,industrial,98.2,14293.6,06:00:00,18:00:00,Mon-Fri,ACTIVE
b52d65fe-89c6-4e0c-bf00-3bb809fd08d3,PRODUCER,28.697021,76.937883,Haryana & Delhi NCR,industrial,178.5,4136.1,06:00:00,18:00:00,Mon-Fri,ACTIVE
04e8fcd8-cc48-4c21-9a43-69132cae98af,PRODUCER,28.801836,77.129842,Haryana & Delhi NCR,industrial,394.4,8463.6,06:00:00,18:00:00,Mon-Fri,ACTIVE
58b3fe0a-f8d7-4da0-a2e5-59163131e6aa,PRODUCER,28.643411,77.181584,Haryana & Delhi NCR,industrial,123.3,14499.1,06:00:00,18:00:00,Mon-Fri,ACTIVE
b4b77559-516d-463e-a0dc-9eb119265e62,PRODUCER,28.677944,77.381161,Haryana & Delhi NCR,industrial,214.2,7412.7,06:00:00,18:00:00,Mon-Fri,ACTIVE
6e2d1d8d-cd58-461f-9a23-3165d5b8d33b,PRODUCER,28.67793,77.380326,Haryana & Delhi NCR,industrial,184.2,9522.1,06:00:00,18:00:00,Mon-Fri,ACTIVE
c39a7e44-cafa-4d34-98f5-e714cc81f8b3,PRODUCER,28.677976,77.379622,Haryana & Delhi NCR,industrial,135.6,7028.3,06:00:00,18:00:00,Mon-Fri,ACTIVE
68446b95-3d0f-4232-b114-5f0ea0858dc9,PRODUCER,28.620259,76.974143,Haryana & Delhi NCR,industrial,253.9,15656.2,06:00:00,18:00:00,Mon-Fri,ACTIVE
15c8fe05-dae7-4d6f-9429-a6af479e567d,PRODUCER,28.619085,76.973758,Haryana & Delhi NCR,depot,273.8,1445.9,06:00:00,18:00:00,Mon-Fri,ACTIVE
e1fd3a67-d319-4ba3-99d1-4203d9d76e82,PRODUCER,29.70786,77.008803,Haryana & Delhi NCR,industrial,141.4,5050.1,06:00:00,18:00:00,Mon-Fri,ACTIVE
657b10e0-f774-43a4-afb5-9f1729a67f49,PRODUCER,29.670913,76.999573,Haryana & Delhi NCR,industrial,333.6,11416.3,06:00:00,18:00:00,Mon-Fri,ACTIVE
1dc1fc24-4eaf-442a-a09f-e56e02437599,PRODUCER,29.679237,77.006457,Haryana & Delhi NCR,industrial,143.9,9356.4,06:00:00,18:00:00,Mon-Fri,ACTIVE
c508bf61-a458-452d-9522-76969c6aedc3,PRODUCER,29.666321,76.985224,Haryana & Delhi NCR,industrial,369.0,13690.5,06:00:00,18:00:00,Mon-Fri,ACTIVE
7b2eba87-caa4-4742-9424-94c32189ae20,CONSUMER,29.699129,76.971924,Haryana & Delhi NCR,farmland,40.0,1248.1,06:00:00,18:00:00,Mon-Fri,ACTIVE
2d2345b0-2fbb-4b37-9359-615b143e7083,CONSUMER,29.710461,76.96592,Haryana & Delhi NCR,farmland,80.9,3866.1,06:00:00,18:00:00,Mon-Fri,ACTIVE
1aceaba9-b3e6-476b-8965-d2e19a88aa90,CONSUMER,29.71319,76.978262,Haryana & Delhi NCR,farmland,60.6,2388.8,06:00:00,18:00:00,Mon-Fri,ACTIVE
366b22e9-b35c-498c-b109-4add43a70660,CONSUMER,29.708604,76.991902,Haryana & Delhi NCR,farmland,36.7,2875.2,06:00:00,18:00:00,Mon-Fri,ACTIVE
e82f36bf-d890-4d1d-be55-68a74d59e698,CONSUMER,29.707446,76.999119,Haryana & Delhi NCR,farmland,77.2,3020.8,06:00:00,18:00:00,Mon-Fri,ACTIVE
df527f53-d67d-4db8-b4a9-34ba0bc608df,CONSUMER,29.685459,76.980507,Haryana & Delhi NCR,farmland,31.7,1240.4,06:00:00,18:00:00,Mon-Fri,ACTIVE
b82d8544-0d7c-494f-936c-1aa8e427696d,PRODUCER,29.690032,76.986994,Haryana & Delhi NCR,bus_depot,256.7,13306.7,06:00:00,18:00:00,Mon-Fri,ACTIVE
b234ddb3-9f68-416d-98f3-9838ae7c6d55,PRODUCER,29.671252,76.993107,Haryana & Delhi NCR,industrial,171.5,7169.2,06:00:00,18:00:00,Mon-Fri,ACTIVE
49dc1363-a49c-448e-a24b-03bb47c5717d,CONSUMER,29.672321,76.995582,Haryana & Delhi NCR,farmland,66.4,1142.9,06:00:00,18:00:00,Mon-Fri,ACTIVE
19566370-77cf-4f82-b61a-d020b70c2fc8,CONSUMER,29.673417,76.999549,Haryana & Delhi NCR,farmland,28.1,2997.4,06:00:00,18:00:00,Mon-Fri,ACTIVE
6015ded6-73b8-4441-945a-b4895ef17e52,CONSUMER,29.672926,76.997736,Haryana & Delhi NCR,farmland,29.2,3750.7,06:00:00,18:00:00,Mon-Fri,ACTIVE
2788a19d-b75d-4804-905a-f3f9eff9bbc4,PRODUCER,29.671539,76.990842,Haryana & Delhi NCR,industrial,129.2,17959.5,06:00:00,18:00:00,Mon-Fri,ACTIVE
4dd7073f-2d05-4629-b5d2-63bfc37cf6fb,PRODUCER,29.679988,76.973198,Haryana & Delhi NCR,industrial,203.8,8177.8,06:00:00,18:00:00,Mon-Fri,ACTIVE
f3b31a22-1277-418b-9b6b-f40d3fc5f2e6,PRODUCER,29.681943,76.981261,Haryana & Delhi NCR,industrial,180.8,11111.8,06:00:00,18:00:00,Mon-Fri,ACTIVE
127ddecd-c713-427d-8921-5609021b929a,PRODUCER,29.653618,76.970821,Haryana & Delhi NCR,industrial,298.7,2069.8,06:00:00,18:00:00,Mon-Fri,ACTIVE
1aaa0190-38f6-44de-be2e-34ec2167f69b,PRODUCER,29.657991,76.972127,Haryana & Delhi NCR,industrial,333.3,12233.2,06:00:00,18:00:00,Mon-Fri,ACTIVE
7da3cc29-4096-4597-ac77-d16aba47fcce,PRODUCER,29.650667,76.967224,Haryana & Delhi NCR,industrial,399.8,7079.6,06:00:00,18:00:00,Mon-Fri,ACTIVE
c52a891c-86da-45c7-9cc5-881fe832eb78,PRODUCER,29.653957,76.97318,Haryana & Delhi NCR,industrial,258.9,19780.4,06:00:00,18:00:00,Mon-Fri,ACTIVE
edf87819-d1f3-4faf-af78-48a59ccecac2,PRODUCER,27.976388,77.491795,Haryana & Delhi NCR,industrial,100.9,12646.4,06:00:00,18:00:00,Mon-Fri,ACTIVE
371a64ac-670c-48fe-a517-35820fe2da6e,PRODUCER,27.965911,77.47823,Haryana & Delhi NCR,industrial,145.6,15425.7,06:00:00,18:00:00,Mon-Fri,ACTIVE
67f2ec56-acd5-4407-930c-c172d8067d02,PRODUCER,28.220437,77.437806,Haryana & Delhi NCR,industrial,140.5,15375.2,06:00:00,18:00:00,Mon-Fri,ACTIVE
d7ef5e91-ed88-4eb5-bfd4-4b5a3f8373f9,CONSUMER,28.52361,77.296075,Haryana & Delhi NCR,farmland,43.8,3793.0,06:00:00,18:00:00,Mon-Fri,ACTIVE
4c2c8765-24f3-41f9-b1ad-a2b969e02ef4,PRODUCER,28.444177,77.305352,Haryana & Delhi NCR,industrial,379.9,10420.2,06:00:00,18:00:00,Mon-Fri,ACTIVE
35bfdd25-546f-4152-b601-1792e5b0f88b,PRODUCER,28.369794,76.818917,Haryana & Delhi NCR,industrial,174.1,9241.2,06:00:00,18:00:00,Mon-Fri,ACTIVE
ae766be9-444b-467b-99da-5a203347552d,PRODUCER,28.380647,76.835762,Haryana & Delhi NCR,industrial,99.6,9660.0,06:00:00,18:00:00,Mon-Fri,ACTIVE
eb14734f-77f9-4bb9-a48a-ebc49b7cb446,PRODUCER,28.120638,76.790065,Haryana & Delhi NCR,industrial,155.4,13586.6,06:00:00,18:00:00,Mon-Fri,ACTIVE
1aea4824-ae13-4ae2-82ae-def9a82e326e,PRODUCER,28.184625,76.877243,Haryana & Delhi NCR,industrial,385.4,8698.9,06:00:00,18:00:00,Mon-Fri,ACTIVE
878776d0-4877-4b03-8761-0616fb9713f5,PRODUCER,28.205142,76.74775,Haryana & Delhi NCR,industrial,158.7,16079.1,06:00:00,18:00:00,Mon-Fri,ACTIVE
dfedd5df-315d-495b-a057-3708eb80c2f6,PRODUCER,28.053327,76.829032,Haryana & Delhi NCR,industrial,288.5,19398.7,06:00:00,18:00:00,Mon-Fri,ACTIVE
1ee0f6ed-4f0f-4a04-b04b-a4e394063da9,PRODUCER,28.948187,77.234694,Haryana & Delhi NCR,industrial,231.1,17416.5,06:00:00,18:00:00,Mon-Fri,ACTIVE
ff07938e-6fed-44a8-a7e5-b2307e424c69,PRODUCER,29.91689,75.231681,Haryana & Delhi NCR,industrial,331.6,9903.7,06:00:00,18:00:00,Mon-Fri,ACTIVE
4cd6c8e9-cf9e-4204-b4a8-d2173eb7c544,PRODUCER,29.953191,76.895341,Haryana & Delhi NCR,industrial,176.6,9803.2,06:00:00,18:00:00,Mon-Fri,ACTIVE
8e3c5493-a778-4d92-ab76-9bc384adedbf,PRODUCER,29.973322,76.888813,Haryana & Delhi NCR,industrial,278.2,16780.6,06:00:00,18:00:00,Mon-Fri,ACTIVE
4098384a-5d80-437f-babd-2765097f4479,PRODUCER,29.951874,76.844403,Haryana & Delhi NCR,industrial,150.7,15022.4,06:00:00,18:00:00,Mon-Fri,ACTIVE
1ecd308a-4f2c-4248-b59a-b20c0dea28b3,PRODUCER,29.857065,77.038383,Haryana & Delhi NCR,industrial,84.7,8785.9,06:00:00,18:00:00,Mon-Fri,ACTIVE
6fa8e51f-5186-4c33-9339-2e3f121298be,PRODUCER,29.905418,76.981428,Haryana & Delhi NCR,industrial,269.9,18530.7,06:00:00,18:00:00,Mon-Fri,ACTIVE
ffc27097-c6cf-4a9d-88b6-e4fbfd448ed6,PRODUCER,29.994027,77.052088,Haryana & Delhi NCR,industrial,192.5,8322.4,06:00:00,18:00:00,Mon-Fri,ACTIVE
1888bfe8-0b88-4d0e-bed0-3eefe1a658c0,PRODUCER,29.400044,76.95618,Haryana & Delhi NCR,industrial,128.2,18818.4,06:00:00,18:00:00,Mon-Fri,ACTIVE
baeac0e8-fb8d-4017-8fe5-0410907d90fa,PRODUCER,29.403754,76.95366,Haryana & Delhi NCR,industrial,369.9,15113.0,06:00:00,18:00:00,Mon-Fri,ACTIVE
29a793ce-fb00-4bc7-b185-102d53ea5277,PRODUCER,29.402301,76.958626,Haryana & Delhi NCR,industrial,128.0,13938.7,06:00:00,18:00:00,Mon-Fri,ACTIVE
c4d0c4ff-de74-45e4-a126-9122a309a548,PRODUCER,29.402305,76.951263,Haryana & Delhi NCR,industrial,92.3,1015.1,06:00:00,18:00:00,Mon-Fri,ACTIVE
e57c3f60-2374-4969-8ae6-769678075751,PRODUCER,29.398652,76.960692,Haryana & Delhi NCR,industrial,172.5,7639.6,06:00:00,18:00:00,Mon-Fri,ACTIVE
4cc63f3f-0b34-45a1-965f-8111e9e27649,PRODUCER,29.401232,76.946809,Haryana & Delhi NCR,industrial,227.3,18070.5,06:00:00,18:00:00,Mon-Fri,ACTIVE
44831c2a-de41-4ed6-a30c-9e3a74d1ba9a,PRODUCER,29.397724,76.953247,Haryana & Delhi NCR,industrial,254.3,12734.5,06:00:00,18:00:00,Mon-Fri,ACTIVE
0df3fa7e-66cd-4b6b-8653-f5d0e5d6f81a,PRODUCER,29.402555,76.947571,Haryana & Delhi NCR,industrial,134.2,11131.2,06:00:00,18:00:00,Mon-Fri,ACTIVE
39de9171-22cf-4cf9-bb88-aee66955b283,PRODUCER,29.373101,76.957975,Haryana & Delhi NCR,industrial,277.8,16107.1,06:00:00,18:00:00,Mon-Fri,ACTIVE
1cf0ae2c-751f-4c5e-aa94-41a0e68f93de,PRODUCER,29.365266,76.955804,Haryana & Delhi NCR,industrial,214.7,7079.0,06:00:00,18:00:00,Mon-Fri,ACTIVE
5a6f2b49-f35f-45f6-9ecc-e8ab04436269,PRODUCER,29.367211,76.958511,Haryana & Delhi NCR,industrial,343.6,11367.9,06:00:00,18:00:00,Mon-Fri,ACTIVE
9d24b207-175a-4b82-ad00-55d6fe6c852a,PRODUCER,29.365859,76.953327,Haryana & Delhi NCR,industrial,171.6,9375.3,06:00:00,18:00:00,Mon-Fri,ACTIVE
d0348b5c-b258-43bc-b78f-9b6a5de62814,PRODUCER,29.369538,76.955204,Haryana & Delhi NCR,industrial,297.8,6308.8,06:00:00,18:00:00,Mon-Fri,ACTIVE
1948fd17-2462-4cf5-9389-eccc0543522b,PRODUCER,29.356305,76.960622,Haryana & Delhi NCR,industrial,274.3,2254.2,06:00:00,18:00:00,Mon-Fri,ACTIVE
2a1fe695-0d8d-4f8f-a823-fa9abf00d6a4,PRODUCER,29.355072,76.995389,Haryana & Delhi NCR,industrial,258.1,15091.4,06:00:00,18:00:00,Mon-Fri,ACTIVE
19e52b48-9741-47cb-9018-0ca9343007fe,PRODUCER,29.356197,76.982062,Haryana & Delhi NCR,industrial,296.2,19192.0,06:00:00,18:00:00,Mon-Fri,ACTIVE
702ed0c3-a280-404b-8f21-577c8fa2f408,PRODUCER,29.345116,76.985371,Haryana & Delhi NCR,industrial,134.6,11002.6,06:00:00,18:00:00,Mon-Fri,ACTIVE
07417ebe-b193-4082-9dbb-efff98ae1626,PRODUCER,29.358408,76.987636,Haryana & Delhi NCR,industrial,303.3,6291.0,06:00:00,18:00:00,Mon-Fri,ACTIVE
fcb5d845-be14-495d-b527-a0b4b55897a0,PRODUCER,29.33915,76.98474,Haryana & Delhi NCR,industrial,290.1,7831.2,06:00:00,18:00:00,Mon-Fri,ACTIVE
f3eed2d2-f41a-41cc-aeb1-2cad73581453,PRODUCER,29.350756,76.985132,Haryana & Delhi NCR,industrial,183.0,12032.7,06:00:00,18:00:00,Mon-Fri,ACTIVE
d9616261-c1d5-48c1-981d-2b027b1015ec,PRODUCER,29.368481,76.980043,Haryana & Delhi NCR,industrial,334.4,7847.7,06:00:00,18:00:00,Mon-Fri,ACTIVE
672498d1-34f9-4ed8-91c3-87e7f5b87ffc,PRODUCER,29.40962,76.970048,Haryana & Delhi NCR,industrial,293.4,4633.4,06:00:00,18:00:00,Mon-Fri,ACTIVE
bb939f25-1c70-47f6-9f74-f687ed0c334d,PRODUCER,29.396886,76.879841,Haryana & Delhi NCR,industrial,280.2,4720.9,06:00:00,18:00:00,Mon-Fri,ACTIVE
355baa5e-140b-4a86-8c9b-0f3636721722,PRODUCER,29.396529,76.890034,Haryana & Delhi NCR,industrial,259.1,4478.3,06:00:00,18:00:00,Mon-Fri,ACTIVE
06831a05-2cc2-4f11-ab0b-8c494ff0163c,PRODUCER,29.452482,76.868888,Haryana & Delhi NCR,refinery,346.7,7277.7,06:00:00,18:00:00,Mon-Fri,ACTIVE
62542328-f442-41fb-a489-7b9cd71dc645,PRODUCER,29.439985,76.877023,Haryana & Delhi NCR,industrial,267.1,9919.2,06:00:00,18:00:00,Mon-Fri,ACTIVE
97b600e8-44c6-4892-bf6d-a99946db1ed3,PRODUCER,29.466769,76.861348,Haryana & Delhi NCR,industrial,142.5,5187.2,06:00:00,18:00:00,Mon-Fri,ACTIVE
5f4a791d-2960-42f9-a306-3ef396175e50,PRODUCER,29.477281,76.885153,Haryana & Delhi NCR,industrial,156.6,5076.7,06:00:00,18:00:00,Mon-Fri,ACTIVE
89ce6d14-7b55-4129-9ac1-fe0ae2b0ff1c,PRODUCER,29.473367,76.885483,Haryana & Delhi NCR,industrial,182.1,17367.9,06:00:00,18:00:00,Mon-Fri,ACTIVE
1772ae8c-9ad5-4867-9ac1-4563653c97c8,PRODUCER,29.474916,76.890859,Haryana & Delhi NCR,refinery,218.0,8750.9,06:00:00,18:00:00,Mon-Fri,ACTIVE
e0bcd13a-5290-478c-8121-7999ebbe7767,PRODUCER,29.463573,76.895616,Haryana & Delhi NCR,industrial,102.8,14259.4,06:00:00,18:00:00,Mon-Fri,ACTIVE
741065eb-0982-4344-b759-ef1387b2d330,PRODUCER,29.470624,76.878157,Haryana & Delhi NCR,refinery,231.5,18956.2,06:00:00,18:00:00,Mon-Fri,ACTIVE
abaa1341-94e8-40ce-8988-d1d9d2f57572,PRODUCER,29.486263,76.88921,Haryana & Delhi NCR,industrial,128.4,14216.0,06:00:00,18:00:00,Mon-Fri,ACTIVE
8e062966-90b0-4f13-b1aa-cebe1953114b,PRODUCER,29.483304,76.889915,Haryana & Delhi NCR,industrial,374.4,10622.6,06:00:00,18:00:00,Mon-Fri,ACTIVE
db4fb416-3d9b-44a8-afc1-d2a51d7878e9,PRODUCER,29.494909,76.930566,Haryana & Delhi NCR,industrial,294.1,17176.2,06:00:00,18:00:00,Mon-Fri,ACTIVE
0c14c400-0efc-4cfc-aaa4-6ed7e2e2829c,CONSUMER,29.536105,76.843858,Haryana & Delhi NCR,farmland,31.3,1743.2,06:00:00,18:00:00,Mon-Fri,ACTIVE
3f02e836-1629-4f7e-9070-48ea1f63b262,CONSUMER,29.557433,76.858151,Haryana & Delhi NCR,farmland,38.0,1899.7,06:00:00,18:00:00,Mon-Fri,ACTIVE
77dbbdab-d02f-4375-89a8-00371e27f4a9,PRODUCER,29.289497,76.809865,Haryana & Delhi NCR,industrial,375.1,4134.3,06:00:00,18:00:00,Mon-Fri,ACTIVE
7670606f-7d30-4968-ad6b-1ab9ff3a7b6c,PRODUCER,29.276872,76.803335,Haryana & Delhi NCR,industrial,199.8,7042.5,06:00:00,18:00:00,Mon-Fri,ACTIVE
77f7331a-654e-4ea6-9bfc-4cc4ebd619d8,PRODUCER,29.218238,76.99691,Haryana & Delhi NCR,industrial,338.2,12922.4,06:00:00,18:00:00,Mon-Fri,ACTIVE
6ae6cb66-7c01-4e51-8d47-b6eeab6e8911,PRODUCER,29.221357,77.007296,Haryana & Delhi NCR,industrial,229.9,7310.4,06:00:00,18:00:00,Mon-Fri,ACTIVE
09945e71-e37f-4fee-bfce-c504897b970a,PRODUCER,29.170135,77.011363,Haryana & Delhi NCR,industrial,314.6,17937.2,06:00:00,18:00:00,Mon-Fri,ACTIVE
b8291336-05a1-4391-bd5d-2832b969bdc9,PRODUCER,28.987931,77.041013,Haryana & Delhi NCR,industrial,245.6,11376.3,06:00:00,18:00:00,Mon-Fri,ACTIVE
f17e1a1e-5abe-42a2-858d-8053db44b143,PRODUCER,28.989102,77.038967,Haryana & Delhi NCR,industrial,266.4,9664.9,06:00:00,18:00:00,Mon-Fri,ACTIVE
abc2445c-60f5-4260-9574-dfef33d6d6f6,PRODUCER,28.746713,77.132046,Haryana & Delhi NCR,industrial,378.4,6186.4,06:00:00,18:00:00,Mon-Fri,ACTIVE
5ba332fe-9bd0-49ec-8887-0a0497b537ad,PRODUCER,28.695279,77.031052,Haryana & Delhi NCR,industrial,191.2,10355.9,06:00:00,18:00:00,Mon-Fri,ACTIVE
5fb9abaa-63f2-4b88-87ef-4afa26aa345b,PRODUCER,28.620193,76.930097,Haryana & Delhi NCR,depot,312.9,2159.3,06:00:00,18:00:00,Mon-Fri,ACTIVE
279b68d9-54b0-4b88-91c0-4fc9b2274994,CONSUMER,28.531488,77.266288,Haryana & Delhi NCR,farmland,28.3,2501.2,06:00:00,18:00:00,Mon-Fri,ACTIVE
c4306dc5-ef46-4f7f-b0bf-b322f14ba25f,PRODUCER,28.656094,77.147884,Haryana & Delhi NCR,industrial,378.1,9191.3,06:00:00,18:00:00,Mon-Fri,ACTIVE
a792e3b3-612b-44cf-a43f-51d6488fdf4f,PRODUCER,28.655253,77.149543,Haryana & Delhi NCR,industrial,164.9,12373.7,06:00:00,18:00:00,Mon-Fri,ACTIVE
49602127-0091-48fa-860a-73e056e8aa56,PRODUCER,28.657587,77.145926,Haryana & Delhi NCR,industrial,225.7,6997.5,06:00:00,18:00:00,Mon-Fri,ACTIVE
3695c07f-ca99-4d60-8400-eb402797cdfe,PRODUCER,28.671575,77.078823,Haryana & Delhi NCR,industrial,233.6,16324.6,06:00:00,18:00:00,Mon-Fri,ACTIVE
a1d8941f-b87b-45c0-b7bf-86b5e26154e2,PRODUCER,28.670842,77.113948,Haryana & Delhi NCR,industrial,145.6,17254.6,06:00:00,18:00:00,Mon-Fri,ACTIVE
180f99ef-2d21-4a3e-8fe5-2757e05c69e6,PRODUCER,28.652938,77.088924,Haryana & Delhi NCR,depot,198.2,14428.1,06:00:00,18:00:00,Mon-Fri,ACTIVE
d0bee076-4383-4d9e-95d0-90fb34079b08,PRODUCER,28.527548,77.054165,Haryana & Delhi NCR,communication,339.9,10318.2,06:00:00,18:00:00,Mon-Fri,ACTIVE
0c4739fc-3f30-4b50-9695-c729ac7957fa,PRODUCER,28.669216,76.962674,Haryana & Delhi NCR,industrial,215.6,11239.5,06:00:00,18:00:00,Mon-Fri,ACTIVE
6b5e4988-535d-47c9-8641-7599ddcbc910,PRODUCER,28.681379,76.982952,Haryana & Delhi NCR,industrial,390.4,2486.0,06:00:00,18:00:00,Mon-Fri,ACTIVE
554d50fa-c807-42e3-8e59-ba4c314196e5,PRODUCER,28.687661,77.007164,Haryana & Delhi NCR,industrial,249.5,5883.2,06:00:00,18:00:00,Mon-Fri,ACTIVE
25fd5372-0877-4eaf-b63f-16002864f7c6,PRODUCER,28.54097,77.05885,Haryana & Delhi NCR,water,134.8,19742.9,06:00:00,18:00:00,Mon-Fri,ACTIVE
1b4864e1-2b1a-4d38-adb1-f4a6b12bb49c,CONSUMER,28.759812,77.217256,Haryana & Delhi NCR,farmland,34.0,3177.3,06:00:00,18:00:00,Mon-Fri,ACTIVE
8ad71e4a-b013-4153-aa2b-9db8d8c2f8df,PRODUCER,28.688949,77.133848,Haryana & Delhi NCR,industrial,164.7,10566.5,06:00:00,18:00:00,Mon-Fri,ACTIVE
b6d5c974-cee9-472f-8f9e-7dad30926a6c,PRODUCER,28.522042,77.16532,Haryana & Delhi NCR,industrial,231.3,8547.8,06:00:00,18:00:00,Mon-Fri,ACTIVE
c6f7acfe-b88d-40cf-bd3a-aa2cefe321e1,PRODUCER,28.563892,77.275691,Haryana & Delhi NCR,industrial,295.9,10979.5,06:00:00,18:00:00,Mon-Fri,ACTIVE
b2f5250a-5017-41df-958d-b4aa1f457539,PRODUCER,28.652547,77.120483,Haryana & Delhi NCR,industrial,347.4,18411.1,06:00:00,18:00:00,Mon-Fri,ACTIVE
41ced824-c31e-4cb9-a393-77ba73c93e00,PRODUCER,28.657167,77.051655,Haryana & Delhi NCR,industrial,274.4,14697.6,06:00:00,18:00:00,Mon-Fri,ACTIVE
55b4490f-a794-4c0c-8cc0-74d3db4d8c8f,PRODUCER,28.551373,77.27021,Haryana & Delhi NCR,industrial,264.4,8641.6,06:00:00,18:00:00,Mon-Fri,ACTIVE
fa6ea919-815f-47e3-b8de-efa3945bec7a,PRODUCER,28.552917,77.279722,Haryana & Delhi NCR,industrial,165.9,1780.9,06:00:00,18:00:00,Mon-Fri,ACTIVE
2bd28675-d455-4c79-b115-c7f0afe50e4f,PRODUCER,29.015229,77.013743,Haryana & Delhi NCR,industrial,276.3,9082.0,06:00:00,18:00:00,Mon-Fri,ACTIVE
d55ba0db-10bf-4fd3-9a12-6691e90b63a3,PRODUCER,28.869847,76.673,Haryana & Delhi NCR,industrial,367.2,5441.7,06:00:00,18:00:00,Mon-Fri,ACTIVE
77a0efdb-9dc5-41a4-b60f-7dcd1e8856c9,PRODUCER,28.692859,76.955253,Haryana & Delhi NCR,industrial,381.8,7933.9,06:00:00,18:00:00,Mon-Fri,ACTIVE
10a3b4a2-a448-4356-b40a-dcdadddcb47a,PRODUCER,28.683598,76.953344,Haryana & Delhi NCR,industrial,87.1,8311.9,06:00:00,18:00:00,Mon-Fri,ACTIVE
6f7a8cb3-fef5-4eb1-8a6f-3128e6b28289,PRODUCER,28.384753,76.940302,Haryana & Delhi NCR,industrial,123.9,9156.5,06:00:00,18:00:00,Mon-Fri,ACTIVE
d9dfcc26-8d68-4fab-9588-db2e18fe63d5,PRODUCER,28.3863,76.940158,Haryana & Delhi NCR,industrial,376.6,16205.1,06:00:00,18:00:00,Mon-Fri,ACTIVE
c70791e8-9232-490e-9b2d-8001d35ecd79,PRODUCER,28.371651,76.937798,Haryana & Delhi NCR,automotive_parts,244.8,17211.2,06:00:00,18:00:00,Mon-Fri,ACTIVE
d0f6715f-b9cb-4bbb-98b2-d0ba86fa3edd,PRODUCER,28.675068,77.330574,Haryana & Delhi NCR,industrial,305.5,11794.0,06:00:00,18:00:00,Mon-Fri,ACTIVE
726afd3e-0a1e-4f93-ae2d-9f7697db8532,PRODUCER,28.677645,77.202605,Haryana & Delhi NCR,industrial,373.6,7302.5,06:00:00,18:00:00,Mon-Fri,ACTIVE
ffdaae5c-bc1a-459a-8b19-1a2a27d64c90,PRODUCER,28.629766,77.33216,Haryana & Delhi NCR,industrial,145.5,14007.0,06:00:00,18:00:00,Mon-Fri,ACTIVE
366d00cf-10fd-4883-8244-55dd12a4fc69,PRODUCER,28.636493,77.316855,Haryana & Delhi NCR,industrial,289.8,7101.3,06:00:00,18:00:00,Mon-Fri,ACTIVE
983c5e6c-74a0-4ff0-98bb-53f76fb1e46d,PRODUCER,28.637465,77.315783,Haryana & Delhi NCR,industrial,123.4,16464.4,06:00:00,18:00:00,Mon-Fri,ACTIVE
5d9d4d00-368c-4139-84c5-b0b481d41553,PRODUCER,28.640152,77.316326,Haryana & Delhi NCR,industrial,335.0,16029.4,06:00:00,18:00:00,Mon-Fri,ACTIVE
eb8f6df4-228b-4220-bd25-60a249c653c7,PRODUCER,28.639708,77.3158,Haryana & Delhi NCR,industrial,217.5,11743.4,06:00:00,18:00:00,Mon-Fri,ACTIVE
a93604cd-e157-4a0d-b2bf-a47a5d3cf03d,PRODUCER,28.640478,77.316038,Haryana & Delhi NCR,industrial,158.0,5422.2,06:00:00,18:00:00,Mon-Fri,ACTIVE
ca5f4ae8-819a-48d6-afd2-c4953de876f2,PRODUCER,28.711072,77.229743,Haryana & Delhi NCR,industrial,265.0,1015.5,06:00:00,18:00:00,Mon-Fri,ACTIVE
9d3d09d9-726b-49c6-8d44-a88b8ff9f349,PRODUCER,28.703344,77.197522,Haryana & Delhi NCR,industrial,148.8,6131.8,06:00:00,18:00:00,Mon-Fri,ACTIVE
862962ac-b796-4e3c-bd97-ffbbc2f1d8d9,PRODUCER,28.712056,77.19921,Haryana & Delhi NCR,communication,155.0,5069.7,06:00:00,18:00:00,Mon-Fri,ACTIVE
da33913e-efc4-478d-994e-aee3fcd0810b,PRODUCER,28.68017,77.192075,Haryana & Delhi NCR,industrial,271.8,8368.4,06:00:00,18:00:00,Mon-Fri,ACTIVE
cd2b9988-120f-41dc-81b1-ebc5c7d5dfa3,PRODUCER,28.678075,77.193262,Haryana & Delhi NCR,industrial,300.9,10549.1,06:00:00,18:00:00,Mon-Fri,ACTIVE
d96af3f7-c0f8-486f-86f1-f39b0891bd7d,PRODUCER,28.63529,77.129878,Haryana & Delhi NCR,depot,245.2,6755.7,06:00:00,18:00:00,Mon-Fri,ACTIVE
e500b598-b304-4f75-9b3e-6e049a19a965,PRODUCER,28.656848,77.155657,Haryana & Delhi NCR,industrial,286.4,5853.0,06:00:00,18:00:00,Mon-Fri,ACTIVE
a47d0338-31f4-4ec0-98ea-159f04203d25,PRODUCER,28.653808,77.156171,Haryana & Delhi NCR,depot,283.7,3240.2,06:00:00,18:00:00,Mon-Fri,ACTIVE
556ad989-58b6-4328-a363-30040bf52798,CONSUMER,28.599962,77.298752,Haryana & Delhi NCR,farmland,37.9,1235.4,06:00:00,18:00:00,Mon-Fri,ACTIVE
570ee1de-1146-4ca6-a433-e61decef712f,PRODUCER,28.52794,77.465425,Haryana & Delhi NCR,industrial,141.4,3018.3,06:00:00,18:00:00,Mon-Fri,ACTIVE
f8928cbf-d97f-4875-af86-d2b73db08e0a,PRODUCER,28.782321,77.269049,Haryana & Delhi NCR,industrial,117.3,7352.9,06:00:00,18:00:00,Mon-Fri,ACTIVE
2f487d96-80dd-48ac-9831-ff7f30d918a6,PRODUCER,28.785484,77.260844,Haryana & Delhi NCR,industrial,319.9,17329.9,06:00:00,18:00:00,Mon-Fri,ACTIVE
30b49765-32da-4961-b91b-bd9017c07c9a,PRODUCER,28.787976,77.2553,Haryana & Delhi NCR,industrial,87.2,12393.9,06:00:00,18:00:00,Mon-Fri,ACTIVE
2c8df6ce-adc2-46e8-812c-0a05d36a807f,PRODUCER,28.780906,77.262331,Haryana & Delhi NCR,industrial,129.7,15250.5,06:00:00,18:00:00,Mon-Fri,ACTIVE
9d3d6766-6e6f-474e-870c-3c23b90f3bbd,PRODUCER,28.78805,77.262719,Haryana & Delhi NCR,industrial,95.7,12238.4,06:00:00,18:00:00,Mon-Fri,ACTIVE
ccfa0244-7035-4a20-bc3a-fdae3281f786,PRODUCER,28.678251,77.390664,Haryana & Delhi NCR,industrial,315.8,3496.1,06:00:00,18:00:00,Mon-Fri,ACTIVE
0c08208b-9bb2-4025-9978-a7258f3bfb71,PRODUCER,28.640103,77.440784,Haryana & Delhi NCR,industrial,346.6,8342.8,06:00:00,18:00:00,Mon-Fri,ACTIVE
5213a9e9-7cdd-44f4-9ef8-d5a4774dd56b,PRODUCER,28.746879,77.311459,Haryana & Delhi NCR,industrial,229.8,18150.6,06:00:00,18:00:00,Mon-Fri,ACTIVE
7ff1d2c4-290c-4f6b-8eba-fee5b2870470,PRODUCER,28.752753,77.313726,Haryana & Delhi NCR,industrial,134.3,5342.2,06:00:00,18:00:00,Mon-Fri,ACTIVE
8aa70f2c-b063-42e8-992c-1961a0fec178,PRODUCER,28.718078,77.287417,Haryana & Delhi NCR,industrial,343.1,9170.1,06:00:00,18:00:00,Mon-Fri,ACTIVE
2156373c-b9b5-4863-abba-ef96fc23c950,PRODUCER,28.787969,77.272135,Haryana & Delhi NCR,industrial,349.4,14288.2,06:00:00,18:00:00,Mon-Fri,ACTIVE
69bdd87f-0ed2-4ff3-ac15-e64205179f4a,PRODUCER,28.787359,77.241982,Haryana & Delhi NCR,industrial,142.0,19126.1,06:00:00,18:00:00,Mon-Fri,ACTIVE
6d9d9409-3971-412d-9c82-d9feef7fb73e,PRODUCER,28.785682,77.274433,Haryana & Delhi NCR,industrial,184.5,15060.1,06:00:00,18:00:00,Mon-Fri,ACTIVE
f6f3e677-37a8-4836-8e86-2c250a97dcd3,PRODUCER,30.126497,77.283271,Haryana & Delhi NCR,industrial,387.5,7159.2,06:00:00,18:00:00,Mon-Fri,ACTIVE
c3f44149-7a71-4199-a8f2-50175740a4b1,PRODUCER,30.128473,77.276768,Haryana & Delhi NCR,industrial,365.2,15632.7,06:00:00,18:00:00,Mon-Fri,ACTIVE
f886e940-1b80-4a10-9475-5e9e9826e638,PRODUCER,30.196875,77.330061,Haryana & Delhi NCR,industrial,195.0,3361.7,06:00:00,18:00:00,Mon-Fri,ACTIVE
4dda2da4-89d2-4d40-8bd1-5728b2174285,PRODUCER,30.140746,77.246325,Haryana & Delhi NCR,industrial,308.3,16646.6,06:00:00,18:00:00,Mon-Fri,ACTIVE
99c234ce-afd9-4f9e-921a-ab1d66e79ac1,PRODUCER,30.142083,77.238295,Haryana & Delhi NCR,industrial,181.6,11078.2,06:00:00,18:00:00,Mon-Fri,ACTIVE
94ece2b5-55dc-4b0c-9a90-60350fdc804d,PRODUCER,30.135039,77.233364,Haryana & Delhi NCR,industrial,274.7,6019.2,06:00:00,18:00:00,Mon-Fri,ACTIVE
1e46859d-5d8c-473e-ae9d-95532221fd60,PRODUCER,30.117795,77.274401,Haryana & Delhi NCR,industrial,277.9,3436.1,06:00:00,18:00:00,Mon-Fri,ACTIVE
2f2e8475-e1f3-4b40-9a3d-81387bc32b02,PRODUCER,30.118758,77.279502,Haryana & Delhi NCR,industrial,368.7,9621.6,06:00:00,18:00:00,Mon-Fri,ACTIVE
1d6b8d41-d6c7-4601-bbaa-bc322b82b1b2,PRODUCER,30.121011,77.278197,Haryana & Delhi NCR,industrial,320.3,7933.3,06:00:00,18:00:00,Mon-Fri,ACTIVE
dff24833-1569-4c25-9567-4e07732fae3b,PRODUCER,28.715757,77.112126,Haryana & Delhi NCR,depot,98.8,9428.6,06:00:00,18:00:00,Mon-Fri,ACTIVE
853a0df0-d86e-4d79-ad4c-b54fd71b1a65,CONSUMER,28.760544,77.117872,Haryana & Delhi NCR,farmland,52.9,2992.2,06:00:00,18:00:00,Mon-Fri,ACTIVE
e5bf3467-ddf7-4b56-8c65-9c4d4b8f2700,CONSUMER,28.751284,77.125716,Haryana & Delhi NCR,farmland,32.1,2084.6,06:00:00,18:00:00,Mon-Fri,ACTIVE
847cde99-c1e8-4471-b9f2-1d448286d25a,CONSUMER,28.765232,77.122777,Haryana & Delhi NCR,farmland,63.5,2361.6,06:00:00,18:00:00,Mon-Fri,ACTIVE
4ce77084-f564-48ab-9d9c-a7438bd17c66,PRODUCER,30.056288,76.881442,Haryana & Delhi NCR,industrial,250.2,6035.3,06:00:00,18:00:00,Mon-Fri,ACTIVE
7a7ba4ed-0ac8-4ae4-937f-86e8de7719f5,CONSUMER,29.105175,75.351061,Haryana & Delhi NCR,farmland,30.1,927.0,06:00:00,18:00:00,Mon-Fri,ACTIVE
88636c9c-4d47-4522-ae36-3e1aa3172d7c,CONSUMER,29.101233,75.378593,Haryana & Delhi NCR,farmland,29.8,1330.4,06:00:00,18:00:00,Mon-Fri,ACTIVE
d7019162-bfed-45aa-8fa4-41d3b39a1c1d,PRODUCER,27.968303,76.366246,Haryana & Delhi NCR,industrial,320.0,10858.0,06:00:00,18:00:00,Mon-Fri,ACTIVE
22496644-f4d1-48c9-a208-4abc8b606844,CONSUMER,29.431951,75.871399,Haryana & Delhi NCR,farmland,63.3,2660.9,06:00:00,18:00:00,Mon-Fri,ACTIVE
a515202d-9af2-4abf-a8e5-b9047a4408c7,CONSUMER,29.44009,75.869676,Haryana & Delhi NCR,farmland,28.3,2232.0,06:00:00,18:00:00,Mon-Fri,ACTIVE
d355afd6-4b1d-44ef-94fa-a02fc9a3a33e,CONSUMER,29.437182,75.869816,Haryana & Delhi NCR,farmland,61.8,3134.9,06:00:00,18:00:00,Mon-Fri,ACTIVE
7c735535-160b-4067-9301-a03256893150,CONSUMER,29.436059,75.873924,Haryana & Delhi NCR,farmland,84.9,3852.4,06:00:00,18:00:00,Mon-Fri,ACTIVE
b1ab1551-d581-4b01-ab11-ecc98927915e,CONSUMER,29.350484,75.802575,Haryana & Delhi NCR,farmland,36.0,764.7,06:00:00,18:00:00,Mon-Fri,ACTIVE
dc329acf-735b-4e46-bd7d-ab58ab86dbf3,PRODUCER,29.353705,75.65009,Haryana & Delhi NCR,industrial,228.0,1056.2,06:00:00,18:00:00,Mon-Fri,ACTIVE
cad6e79b-06a8-4ae0-b095-f66c52c81a35,PRODUCER,29.353157,75.651952,Haryana & Delhi NCR,industrial,231.4,18716.5,06:00:00,18:00:00,Mon-Fri,ACTIVE
c1334c87-5682-4bb9-a2fe-e420801d1299,PRODUCER,29.502067,75.440921,Haryana & Delhi NCR,industrial,268.9,13815.1,06:00:00,18:00:00,Mon-Fri,ACTIVE
0251335d-7b18-4c6e-8955-0fc8e039cfab,PRODUCER,29.147399,76.684688,Haryana & Delhi NCR,industrial,378.9,14027.2,06:00:00,18:00:00,Mon-Fri,ACTIVE
13bf24b3-daf2-429d-8eb8-56e341918553,PRODUCER,29.1186,77.016842,Haryana & Delhi NCR,industrial,114.3,2862.1,06:00:00,18:00:00,Mon-Fri,ACTIVE
8c1cf4e6-ce06-4cfe-bef1-a156d3184972,PRODUCER,29.2898,77.494128,Haryana & Delhi NCR,industrial,359.5,2034.6,06:00:00,18:00:00,Mon-Fri,ACTIVE
61cb69cb-0ab5-4f88-81e5-072cc6790291,PRODUCER,28.611163,77.337034,Haryana & Delhi NCR,industrial,379.9,18800.8,06:00:00,18:00:00,Mon-Fri,ACTIVE
df009e5b-562c-4a81-ac2f-e8df3acfdbdf,PRODUCER,28.52593,77.093733,Haryana & Delhi NCR,industrial,340.7,1677.3,06:00:00,18:00:00,Mon-Fri,ACTIVE
699bbc34-4e1a-47ac-8245-a36c8af0a6f2,PRODUCER,28.390615,77.302055,Haryana & Delhi NCR,industrial,353.9,17390.9,06:00:00,18:00:00,Mon-Fri,ACTIVE
711dce15-b4db-4b7d-9cf9-c2558065d2b7,PRODUCER,28.671325,77.4597,Haryana & Delhi NCR,industrial,176.4,15199.7,06:00:00,18:00:00,Mon-Fri,ACTIVE
08f333c3-6b20-40d6-ad9b-1555219b80b9,PRODUCER,28.504739,77.508179,Haryana & Delhi NCR,industrial,212.2,6009.1,06:00:00,18:00:00,Mon-Fri,ACTIVE
fc9aac81-9170-4a16-a477-805f44194feb,PRODUCER,28.613001,77.377088,Haryana & Delhi NCR,industrial,165.3,2216.2,06:00:00,18:00:00,Mon-Fri,ACTIVE
15355c07-c02b-4874-8fdb-a3c3ee80058f,CONSUMER,27.913674,75.488693,Haryana & Delhi NCR,farmland,51.7,3236.8,06:00:00,18:00:00,Mon-Fri,ACTIVE
73b195b3-b1c5-4769-b24c-70b13fb562a3,CONSUMER,27.914907,75.483145,Haryana & Delhi NCR,farmland,79.3,2436.3,06:00:00,18:00:00,Mon-Fri,ACTIVE
82a0631a-18e7-430d-b585-6519cd51ad2a,CONSUMER,29.587467,75.651343,Haryana & Delhi NCR,farmland,29.6,2765.8,06:00:00,18:00:00,Mon-Fri,ACTIVE
08428688-b07c-461d-8f0e-d73cbadff3d2,CONSUMER,29.586679,75.662817,Haryana & Delhi NCR,farmland,34.9,3151.0,06:00:00,18:00:00,Mon-Fri,ACTIVE
147c92a7-3c4e-42b1-aece-4dc248478472,CONSUMER,29.579567,75.668825,Haryana & Delhi NCR,farmland,65.2,3735.6,06:00:00,18:00:00,Mon-Fri,ACTIVE
126621d2-31ec-43c9-acbf-86b147a3696e,CONSUMER,29.627458,75.656165,Haryana & Delhi NCR,farmland,88.3,1316.7,06:00:00,18:00:00,Mon-Fri,ACTIVE
92c29092-6745-4fda-9c6e-0d0d5312e627,CONSUMER,29.60783,75.666347,Haryana & Delhi NCR,farmland,50.3,1366.9,06:00:00,18:00:00,Mon-Fri,ACTIVE
3f05a39c-7f25-44f5-9c0e-01d7006216f4,CONSUMER,29.624691,75.667445,Haryana & Delhi NCR,farmland,87.3,2588.2,06:00:00,18:00:00,Mon-Fri,ACTIVE
23d2be06-f959-4b40-b1ab-99bd720051c7,CONSUMER,29.617936,75.662032,Haryana & Delhi NCR,farmland,25.6,3382.3,06:00:00,18:00:00,Mon-Fri,ACTIVE
a930f2d3-64b0-4dcc-8da2-ec90076fdb73,CONSUMER,29.602661,75.656761,Haryana & Delhi NCR,farmland,72.5,3621.6,06:00:00,18:00:00,Mon-Fri,ACTIVE
fd820ce8-d007-48ea-8739-d5f6156d3066,CONSUMER,29.584964,75.697198,Haryana & Delhi NCR,farmland,26.2,1283.0,06:00:00,18:00:00,Mon-Fri,ACTIVE
ef558f57-0533-469d-a183-7b7d78072748,CONSUMER,29.5936,75.690291,Haryana & Delhi NCR,farmland,32.3,1490.6,06:00:00,18:00:00,Mon-Fri,ACTIVE
127ef664-933d-4e3d-bdba-b3cd4ba36b1e,CONSUMER,29.596086,75.711569,Haryana & Delhi NCR,farmland,34.7,3240.0,06:00:00,18:00:00,Mon-Fri,ACTIVE
8c26a712-79fb-467d-bd24-5fecec495802,CONSUMER,29.625517,75.680039,Haryana & Delhi NCR,farmland,38.1,2641.2,06:00:00,18:00:00,Mon-Fri,ACTIVE
a805a891-cdeb-46d4-913f-753a7fa6584c,CONSUMER,29.621237,75.719229,Haryana & Delhi NCR,farmland,59.2,539.0,06:00:00,18:00:00,Mon-Fri,ACTIVE
8ce5f5ea-1707-4f99-a310-475e0bb6239b,CONSUMER,29.613503,75.712221,Haryana & Delhi NCR,farmland,70.1,3313.9,06:00:00,18:00:00,Mon-Fri,ACTIVE
f3765c8b-cddb-4ed1-8605-050834e83ff2,CONSUMER,29.607713,75.688111,Haryana & Delhi NCR,farmland,32.1,3981.3,06:00:00,18:00:00,Mon-Fri,ACTIVE
cb765642-279b-4b0b-a2a8-e1988d994c9a,CONSUMER,29.668384,75.672045,Haryana & Delhi NCR,farmland,40.9,1302.4,06:00:00,18:00:00,Mon-Fri,ACTIVE
2b832850-1c1f-412c-96b5-7d8b8fe34c64,CONSUMER,29.642655,75.664905,Haryana & Delhi NCR,farmland,84.5,1483.3,06:00:00,18:00:00,Mon-Fri,ACTIVE
9861b636-4622-4923-aa25-c516980c3d34,CONSUMER,29.630245,75.695633,Haryana & Delhi NCR,farmland,51.7,2990.8,06:00:00,18:00:00,Mon-Fri,ACTIVE
e04bc6ca-8afc-47e8-bdd1-f77097fbe4be,CONSUMER,29.664186,75.673091,Haryana & Delhi NCR,farmland,67.2,3868.9,06:00:00,18:00:00,Mon-Fri,ACTIVE
49bc0201-8334-4d00-8ba7-c960e3472f3b,PRODUCER,29.665888,75.677306,Haryana & Delhi NCR,industrial,276.0,13434.0,06:00:00,18:00:00,Mon-Fri,ACTIVE
381a22c1-f23b-4392-962d-9933e93e3451,CONSUMER,29.664087,75.68238,Haryana & Delhi NCR,farmland,81.3,1552.2,06:00:00,18:00:00,Mon-Fri,ACTIVE
fc0fc9dc-5e2d-4c4c-a740-2f720a9a945a,PRODUCER,29.642728,75.72097,Haryana & Delhi NCR,industrial,398.1,9768.5,06:00:00,18:00:00,Mon-Fri,ACTIVE
f5d6fb17-39cc-4811-99ad-aeac009a9281,CONSUMER,29.644977,75.679017,Haryana & Delhi NCR,farmland,38.4,1477.6,06:00:00,18:00:00,Mon-Fri,ACTIVE
d44ede6b-bb6d-4fd8-bebf-2b811443bc72,CONSUMER,29.647507,75.706454,Haryana & Delhi NCR,farmland,68.0,1218.3,06:00:00,18:00:00,Mon-Fri,ACTIVE
3ca43271-d101-4b72-a42a-f8bbd5ba3418,PRODUCER,29.650371,75.689545,Haryana & Delhi NCR,industrial,327.9,7434.5,06:00:00,18:00:00,Mon-Fri,ACTIVE
75a29982-d8c4-45c0-80f1-297e8e1d29d5,PRODUCER,29.648582,75.69847,Haryana & Delhi NCR,industrial,275.1,14228.8,06:00:00,18:00:00,Mon-Fri,ACTIVE
48b3951c-0d3a-4e13-aea1-2ea669af2e06,PRODUCER,29.654995,75.701317,Haryana & Delhi NCR,industrial,325.3,3057.3,06:00:00,18:00:00,Mon-Fri,ACTIVE
6ca8e436-6463-42ee-9e6a-1de72e56273b,CONSUMER,29.610631,75.637725,Haryana & Delhi NCR,farmland,71.8,2524.3,06:00:00,18:00:00,Mon-Fri,ACTIVE
7a96c8c1-0983-4324-9dbd-532cedb80d7a,CONSUMER,29.610206,75.619194,Haryana & Delhi NCR,farmland,71.1,3487.9,06:00:00,18:00:00,Mon-Fri,ACTIVE
8a70121e-18fe-42a1-b1c3-596bdcc0d4eb,PRODUCER,29.613124,75.621348,Haryana & Delhi NCR,industrial,120.6,3072.9,06:00:00,18:00:00,Mon-Fri,ACTIVE
d31bf45e-6417-48fc-a547-a34e492a8133,PRODUCER,29.61478,75.622445,Haryana & Delhi NCR,industrial,298.5,6883.3,06:00:00,18:00:00,Mon-Fri,ACTIVE
79337032-3c9c-4e26-b5f8-e2e402f5974e,CONSUMER,29.62102,75.637976,Haryana & Delhi NCR,farmland,59.4,1499.0,06:00:00,18:00:00,Mon-Fri,ACTIVE
08926b93-2f8d-473c-be82-7362f2b7545a,CONSUMER,29.664858,75.645232,Haryana & Delhi NCR,farmland,84.4,3511.5,06:00:00,18:00:00,Mon-Fri,ACTIVE
eddd4313-4efb-49af-bee8-a6b03a34df68,CONSUMER,29.665198,75.660421,Haryana & Delhi NCR,farmland,80.5,1777.4,06:00:00,18:00:00,Mon-Fri,ACTIVE
77d9c0cb-3eb1-412f-97c6-20ab47d5a58c,CONSUMER,29.674382,75.657034,Haryana & Delhi NCR,farmland,68.5,1526.0,06:00:00,18:00:00,Mon-Fri,ACTIVE
3a44cc60-40dd-461d-9379-2790d1ab994a,CONSUMER,29.637041,75.63836,Haryana & Delhi NCR,farmland,89.9,3119.2,06:00:00,18:00:00,Mon-Fri,ACTIVE
94647f2e-d711-4a2f-b702-aebd79b7f0e2,CONSUMER,29.647043,75.635104,Haryana & Delhi NCR,farmland,82.2,2929.3,06:00:00,18:00:00,Mon-Fri,ACTIVE
4d8a3180-02af-43e9-a26a-cc41e7b1f101,CONSUMER,29.672152,75.648592,Haryana & Delhi NCR,farmland,32.7,3135.8,06:00:00,18:00:00,Mon-Fri,ACTIVE
a7b1e5e7-183b-43fb-8b88-4f22a8919093,CONSUMER,29.672151,75.661996,Haryana & Delhi NCR,farmland,43.6,1116.8,06:00:00,18:00:00,Mon-Fri,ACTIVE
58a2364e-cc2d-48c3-b30a-d9340e1bdb99,CONSUMER,29.674632,75.655242,Haryana & Delhi NCR,farmland,66.9,3425.4,06:00:00,18:00:00,Mon-Fri,ACTIVE
d27877bd-3bbc-4194-b74e-4e805dd40422,CONSUMER,29.670458,75.660157,Haryana & Delhi NCR,farmland,77.7,2514.0,06:00:00,18:00:00,Mon-Fri,ACTIVE
60b1cecf-fdb4-4f6f-ac4c-e16fa4832085,CONSUMER,29.6706,75.660905,Haryana & Delhi NCR,farmland,43.7,2122.6,06:00:00,18:00:00,Mon-Fri,ACTIVE
a8b9d8e2-80b0-48cb-8972-df31c6a74eb9,CONSUMER,29.652511,75.649949,Haryana & Delhi NCR,farmland,38.7,791.6,06:00:00,18:00:00,Mon-Fri,ACTIVE
3ce8f5d5-e577-4576-af0d-ee57194442ab,CONSUMER,29.671086,75.662015,Haryana & Delhi NCR,farmland,51.3,3850.6,06:00:00,18:00:00,Mon-Fri,ACTIVE
b791fe4e-d0c0-4f2b-a52f-51872c639d32,CONSUMER,29.6483,75.623748,Haryana & Delhi NCR,farmland,77.6,1210.3,06:00:00,18:00:00,Mon-Fri,ACTIVE
f755706a-cc56-463e-b3e2-50f0a50db8c6,CONSUMER,29.630905,75.642367,Haryana & Delhi NCR,farmland,85.7,2392.9,06:00:00,18:00:00,Mon-Fri,ACTIVE
766b224e-35eb-4132-9c1b-fa36de4b995d,CONSUMER,29.627128,75.64682,Haryana & Delhi NCR,farmland,55.3,3357.0,06:00:00,18:00:00,Mon-Fri,ACTIVE
cc5f1ddd-b95e-4946-b1ba-f82dc76f378f,CONSUMER,29.656512,75.620083,Haryana & Delhi NCR,farmland,43.5,3956.7,06:00:00,18:00:00,Mon-Fri,ACTIVE
893d72b3-ca1c-4b16-be87-4347ee062987,CONSUMER,29.624278,75.620179,Haryana & Delhi NCR,farmland,27.4,3190.9,06:00:00,18:00:00,Mon-Fri,ACTIVE
feef3975-7326-4032-b6ea-34ce0e07e116,CONSUMER,29.638002,75.611989,Haryana & Delhi NCR,farmland,33.9,3831.7,06:00:00,18:00:00,Mon-Fri,ACTIVE
5e28b2e6-ebcf-42b9-b96b-561e722999a5,CONSUMER,29.644281,75.627503,Haryana & Delhi NCR,farmland,83.1,3352.2,06:00:00,18:00:00,Mon-Fri,ACTIVE
78bd8c64-8d6c-4bae-856e-7527661f62c9,CONSUMER,29.648934,75.608177,Haryana & Delhi NCR,farmland,68.7,2482.3,06:00:00,18:00:00,Mon-Fri,ACTIVE
84ee7d12-d3ad-4fd8-9e7c-b8d54cf7f10d,PRODUCER,29.666582,75.5697,Haryana & Delhi NCR,industrial,271.3,15579.1,06:00:00,18:00:00,Mon-Fri,ACTIVE
311d2a42-0872-443b-ad2a-cd3b6026dddb,PRODUCER,29.672211,75.59606,Haryana & Delhi NCR,industrial,278.5,3083.4,06:00:00,18:00:00,Mon-Fri,ACTIVE
13f0b9bd-326f-416d-aecd-839c7896cc60,CONSUMER,29.632503,75.593227,Haryana & Delhi NCR,farmland,69.0,3000.9,06:00:00,18:00:00,Mon-Fri,ACTIVE
4c4725ce-7dfc-4c55-8305-5ee31e4da398,CONSUMER,29.658728,75.580776,Haryana & Delhi NCR,farmland,69.0,2906.2,06:00:00,18:00:00,Mon-Fri,ACTIVE
fb13ec63-a0ef-416f-9658-6e38daf63e46,CONSUMER,29.669082,75.598196,Haryana & Delhi NCR,farmland,67.9,3968.4,06:00:00,18:00:00,Mon-Fri,ACTIVE
ca0f1dfd-14a1-4a84-bf6c-380a9f8acffa,CONSUMER,29.637364,75.575995,Haryana & Delhi NCR,farmland,70.4,1365.2,06:00:00,18:00:00,Mon-Fri,ACTIVE
14e07610-7c0c-4c41-9100-8988068795bc,CONSUMER,29.665788,75.598949,Haryana & Delhi NCR,farmland,69.1,3084.2,06:00:00,18:00:00,Mon-Fri,ACTIVE
9a6c52e5-c8a8-40d9-b2a4-ef6b666c3c4c,PRODUCER,29.666855,75.56856,Haryana & Delhi NCR,industrial,301.9,18919.2,06:00:00,18:00:00,Mon-Fri,ACTIVE
09cb63c5-31cb-4b48-874e-9ded6258ba2e,PRODUCER,29.655225,75.562589,Haryana & Delhi NCR,industrial,210.4,10548.8,06:00:00,18:00:00,Mon-Fri,ACTIVE
b677c67b-9be8-4746-a246-17273d5670da,PRODUCER,29.654105,75.562577,Haryana & Delhi NCR,industrial,346.7,5856.7,06:00:00,18:00:00,Mon-Fri,ACTIVE
595d14d5-d83c-4f39-abee-8dc411d4b96d,PRODUCER,29.655745,75.562674,Haryana & Delhi NCR,industrial,187.8,18962.8,06:00:00,18:00:00,Mon-Fri,ACTIVE
1bf0cc2b-e99e-4a90-9d2c-6fbc65669b7c,PRODUCER,29.666845,75.571861,Haryana & Delhi NCR,industrial,330.1,7457.4,06:00:00,18:00:00,Mon-Fri,ACTIVE
12116e1b-f2a0-4a32-b497-c94e90378ffc,PRODUCER,29.656818,75.562893,Haryana & Delhi NCR,industrial,355.2,6193.9,06:00:00,18:00:00,Mon-Fri,ACTIVE
c801e277-f19a-414c-887c-931a8d09ce67,PRODUCER,29.656583,75.563508,Haryana & Delhi NCR,industrial,309.5,17911.2,06:00:00,18:00:00,Mon-Fri,ACTIVE
b156ad10-0629-46cf-8417-bc5aaf03dd6c,CONSUMER,29.644969,75.588286,Haryana & Delhi NCR,farmland,31.9,3502.5,06:00:00,18:00:00,Mon-Fri,ACTIVE
4ae5f08a-8b1e-4d13-9318-8d90fe719891,PRODUCER,29.65876,75.56454,Haryana & Delhi NCR,industrial,228.1,13777.1,06:00:00,18:00:00,Mon-Fri,ACTIVE
07069e05-0c9e-4843-93ce-6dd25ccfe085,CONSUMER,29.658789,75.595908,Haryana & Delhi NCR,farmland,88.3,3446.3,06:00:00,18:00:00,Mon-Fri,ACTIVE
021143b8-dfbe-4122-b20f-12484f3ddc9c,PRODUCER,29.657891,75.572101,Haryana & Delhi NCR,industrial,399.2,2507.4,06:00:00,18:00:00,Mon-Fri,ACTIVE
8dc3e4df-7886-4076-97b1-3429be31c2fc,PRODUCER,29.660457,75.570813,Haryana & Delhi NCR,industrial,184.0,14738.2,06:00:00,18:00:00,Mon-Fri,ACTIVE
ad3bf488-adc1-4c66-89bc-12bffb993c86,PRODUCER,29.658668,75.572198,Haryana & Delhi NCR,industrial,285.7,17913.3,06:00:00,18:00:00,Mon-Fri,ACTIVE
f6c57889-cfaa-4817-a828-04c68ff1c2e5,PRODUCER,29.660073,75.571501,Haryana & Delhi NCR,industrial,160.2,8948.6,06:00:00,18:00:00,Mon-Fri,ACTIVE
12526af9-9f77-4164-abcd-6f0c74b0d7d9,PRODUCER,29.658658,75.571492,Haryana & Delhi NCR,industrial,133.3,16187.7,06:00:00,18:00:00,Mon-Fri,ACTIVE
71df1a58-2af4-454f-accb-3580bbe83170,CONSUMER,29.645104,75.567746,Haryana & Delhi NCR,farmland,49.4,2425.6,06:00:00,18:00:00,Mon-Fri,ACTIVE
4854128b-cd6d-4c14-9577-986c034259e1,CONSUMER,29.662921,75.565745,Haryana & Delhi NCR,farmland,31.4,3904.3,06:00:00,18:00:00,Mon-Fri,ACTIVE
55acddb4-6a9e-4782-81e8-a17437d4026d,CONSUMER,29.622853,75.593544,Haryana & Delhi NCR,farmland,43.8,2293.4,06:00:00,18:00:00,Mon-Fri,ACTIVE
67546acc-9cae-4540-a188-7de7e44c84f6,CONSUMER,29.620113,75.574145,Haryana & Delhi NCR,farmland,65.2,2928.6,06:00:00,18:00:00,Mon-Fri,ACTIVE
9c41ecea-a02b-4bb3-bd97-7a64ab1095c5,CONSUMER,29.659821,75.565773,Haryana & Delhi NCR,farmland,42.4,1534.4,06:00:00,18:00:00,Mon-Fri,ACTIVE
328b6cde-7bba-4f4e-b141-ea148c04075f,CONSUMER,29.659003,75.573613,Haryana & Delhi NCR,farmland,28.0,2792.2,06:00:00,18:00:00,Mon-Fri,ACTIVE
04cc21b5-2295-4b1a-83d4-7077ae861114,CONSUMER,29.6177,75.546505,Haryana & Delhi NCR,farmland,30.7,2204.0,06:00:00,18:00:00,Mon-Fri,ACTIVE
b06fa53e-078a-4d90-a6db-d6a73f09b570,CONSUMER,29.623409,75.566306,Haryana & Delhi NCR,farmland,70.0,3355.4,06:00:00,18:00:00,Mon-Fri,ACTIVE
b74061cc-dd4d-417c-b4a5-93bcaf4a50d6,PRODUCER,29.613909,75.5594,Haryana & Delhi NCR,industrial,257.0,7219.9,06:00:00,18:00:00,Mon-Fri,ACTIVE
22a86d6b-fae9-4cf6-8616-a99ee01374d8,CONSUMER,29.594363,75.593362,Haryana & Delhi NCR,farmland,25.3,3225.2,06:00:00,18:00:00,Mon-Fri,ACTIVE
8ca92fd9-3611-4ec0-b461-7c8561639945,CONSUMER,29.612395,75.552965,Haryana & Delhi NCR,farmland,56.5,3196.6,06:00:00,18:00:00,Mon-Fri,ACTIVE
cda31b61-3d86-47b0-af1d-15ee063bfb4c,CONSUMER,29.62505,75.5588,Haryana & Delhi NCR,farmland,52.0,1291.3,06:00:00,18:00:00,Mon-Fri,ACTIVE
0ad62116-d52a-4746-b55d-13ec5884285f,CONSUMER,29.601588,75.607541,Haryana & Delhi NCR,farmland,60.3,2219.0,06:00:00,18:00:00,Mon-Fri,ACTIVE
bdae787a-80d9-4f4f-a2c2-15c4d15ac0fe,CONSUMER,29.602307,75.568758,Haryana & Delhi NCR,farmland,76.6,2867.8,06:00:00,18:00:00,Mon-Fri,ACTIVE
f6ac3732-23a1-49ef-a123-1dc7b486b2c0,CONSUMER,29.605887,75.600924,Haryana & Delhi NCR,farmland,81.4,1628.8,06:00:00,18:00:00,Mon-Fri,ACTIVE
42654a66-22c0-47e0-a1bf-c698def48d54,CONSUMER,29.583343,75.605622,Haryana & Delhi NCR,farmland,25.6,3381.5,06:00:00,18:00:00,Mon-Fri,ACTIVE
b6872a6f-9efc-47ab-b8c6-50e4a6f0f2da,CONSUMER,29.580623,75.591207,Haryana & Delhi NCR,farmland,86.2,2566.5,06:00:00,18:00:00,Mon-Fri,ACTIVE
920b1b0c-7928-4ee2-8027-3eb09b1dc1c8,CONSUMER,29.579195,75.623922,Haryana & Delhi NCR,farmland,55.7,2782.8,06:00:00,18:00:00,Mon-Fri,ACTIVE
14a6a940-6859-4ab6-aa88-b5ac2baf4eb9,CONSUMER,29.601187,75.616373,Haryana & Delhi NCR,farmland,63.0,3379.7,06:00:00,18:00:00,Mon-Fri,ACTIVE
aa63d1c7-49fd-44f1-975b-b7ada52e63ab,CONSUMER,29.587516,75.633543,Haryana & Delhi NCR,farmland,35.0,2118.1,06:00:00,18:00:00,Mon-Fri,ACTIVE
86a72ac4-74d9-4450-81c5-67c15a1bb41f,CONSUMER,29.571504,75.635915,Haryana & Delhi NCR,farmland,66.6,2809.8,06:00:00,18:00:00,Mon-Fri,ACTIVE
5eb0bd97-7bcf-4c24-a0d3-284d230f1522,CONSUMER,29.590677,75.564775,Haryana & Delhi NCR,farmland,82.8,1574.8,06:00:00,18:00:00,Mon-Fri,ACTIVE
e4537752-39b9-4bdd-9824-c710117a0c78,CONSUMER,29.585246,75.571557,Haryana & Delhi NCR,farmland,73.9,3362.0,06:00:00,18:00:00,Mon-Fri,ACTIVE
f05b2b61-c084-4679-b604-b00439445c53,CONSUMER,29.570835,75.570489,Haryana & Delhi NCR,farmland,48.9,684.0,06:00:00,18:00:00,Mon-Fri,ACTIVE
2f29918d-6a55-42f3-88cd-58c0edc6e302,CONSUMER,29.584982,75.54771,Haryana & Delhi NCR,farmland,46.5,3291.8,06:00:00,18:00:00,Mon-Fri,ACTIVE
cfd17da9-f1fc-4d9a-9f32-c6c9375e5574,CONSUMER,29.548087,75.554657,Haryana & Delhi NCR,farmland,45.9,2615.2,06:00:00,18:00:00,Mon-Fri,ACTIVE
7472409d-52ad-42a3-bed3-a0100cfd3115,CONSUMER,29.593276,75.524803,Haryana & Delhi NCR,farmland,46.6,3481.4,06:00:00,18:00:00,Mon-Fri,ACTIVE
c520dd25-16bd-4a61-85fc-528e223125b6,CONSUMER,29.594814,75.533548,Haryana & Delhi NCR,farmland,36.0,560.1,06:00:00,18:00:00,Mon-Fri,ACTIVE
b7adb621-ffda-45ee-868e-e539511fa79d,CONSUMER,29.592757,75.541532,Haryana & Delhi NCR,farmland,38.2,1821.6,06:00:00,18:00:00,Mon-Fri,ACTIVE
fb432fd9-fe50-4e3c-adea-a1d23576fe8f,CONSUMER,29.554241,75.549246,Haryana & Delhi NCR,farmland,88.6,3628.2,06:00:00,18:00:00,Mon-Fri,ACTIVE
0a6157e4-ca7b-4016-a14e-8f9c5001c538,CONSUMER,29.593794,75.551021,Haryana & Delhi NCR,farmland,79.1,3053.2,06:00:00,18:00:00,Mon-Fri,ACTIVE
ba4d2f3b-09c0-47c3-95a6-4c029cf025ad,CONSUMER,29.603757,75.540588,Haryana & Delhi NCR,farmland,69.7,1917.6,06:00:00,18:00:00,Mon-Fri,ACTIVE
7bf75e59-f389-4d14-91ac-3abec1abe616,CONSUMER,29.584304,75.531014,Haryana & Delhi NCR,farmland,43.1,891.8,06:00:00,18:00:00,Mon-Fri,ACTIVE
bcd33369-5565-4403-a136-c6998c7186e3,CONSUMER,29.586901,75.541348,Haryana & Delhi NCR,farmland,33.6,582.1,06:00:00,18:00:00,Mon-Fri,ACTIVE
1806be5e-390b-4201-a07d-4c45eeca34d7,CONSUMER,29.560858,75.592925,Haryana & Delhi NCR,farmland,74.6,2518.0,06:00:00,18:00:00,Mon-Fri,ACTIVE
b8a445c8-b9a5-4d62-90dd-6bda78628138,CONSUMER,29.556569,75.607829,Haryana & Delhi NCR,farmland,82.4,1937.8,06:00:00,18:00:00,Mon-Fri,ACTIVE
e39e879c-4b0b-4612-9026-aa8b730d49d0,CONSUMER,29.562575,75.542021,Haryana & Delhi NCR,farmland,76.8,3305.2,06:00:00,18:00:00,Mon-Fri,ACTIVE
69fb2db5-bdf5-45e2-916b-1e68642b0c3c,CONSUMER,29.545832,75.502573,Haryana & Delhi NCR,farmland,53.7,2146.8,06:00:00,18:00:00,Mon-Fri,ACTIVE
55240e6b-743a-4d68-8dc2-f295a5376f98,CONSUMER,29.55329,75.48989,Haryana & Delhi NCR,farmland,62.5,1578.3,06:00:00,18:00:00,Mon-Fri,ACTIVE
6803279e-5249-4624-8405-6d5efb07c5c6,CONSUMER,29.521041,75.460686,Haryana & Delhi NCR,farmland,33.6,744.8,06:00:00,18:00:00,Mon-Fri,ACTIVE
9262bd52-7ff6-4ed0-a1f3-0012a113f5bb,CONSUMER,29.553517,75.479747,Haryana & Delhi NCR,farmland,53.4,550.2,06:00:00,18:00:00,Mon-Fri,ACTIVE
34fefaba-9b16-4842-906a-097893e644f5,CONSUMER,29.549557,75.503402,Haryana & Delhi NCR,farmland,88.7,2962.9,06:00:00,18:00:00,Mon-Fri,ACTIVE
f6e9c423-c0da-4956-bbf8-abc469845b21,CONSUMER,29.567078,75.517314,Haryana & Delhi NCR,farmland,82.8,1335.4,06:00:00,18:00:00,Mon-Fri,ACTIVE
45cc00b6-c13c-403c-b153-91e63f93b840,CONSUMER,29.556137,75.502198,Haryana & Delhi NCR,farmland,68.4,1721.0,06:00:00,18:00:00,Mon-Fri,ACTIVE
ff5332c8-4f58-49c4-a63c-911a30d61873,PRODUCER,29.557075,75.481939,Haryana & Delhi NCR,industrial,396.0,3016.6,06:00:00,18:00:00,Mon-Fri,ACTIVE
d1fb9061-2791-49fe-8d3e-c35c1219d72b,CONSUMER,29.581147,75.512261,Haryana & Delhi NCR,farmland,66.8,1523.7,06:00:00,18:00:00,Mon-Fri,ACTIVE
24b1079d-8cf4-4d4d-bf4e-fe3c1db3bf21,CONSUMER,29.560412,75.518397,Haryana & Delhi NCR,farmland,70.2,506.9,06:00:00,18:00:00,Mon-Fri,ACTIVE
f71f13fe-f25c-4181-b318-7924c9181ec6,CONSUMER,29.575042,75.529916,Haryana & Delhi NCR,farmland,45.0,1851.3,06:00:00,18:00:00,Mon-Fri,ACTIVE
a1d29418-a574-4f91-8b6a-b09c73b63229,CONSUMER,29.559524,75.488835,Haryana & Delhi NCR,farmland,46.6,3992.6,06:00:00,18:00:00,Mon-Fri,ACTIVE
fc72f755-1f88-446c-a574-88e414741d17,CONSUMER,29.564252,75.506371,Haryana & Delhi NCR,farmland,83.2,3387.6,06:00:00,18:00:00,Mon-Fri,ACTIVE
f7b2dee7-d2e5-4f46-9396-24a63c5e320f,CONSUMER,29.573832,75.540411,Haryana & Delhi NCR,farmland,44.5,2573.9,06:00:00,18:00:00,Mon-Fri,ACTIVE
82cef9c0-f523-4f61-bffe-1f9ffd8b6df2,CONSUMER,29.555976,75.480447,Haryana & Delhi NCR,farmland,79.9,3311.4,06:00:00,18:00:00,Mon-Fri,ACTIVE
27301351-a521-468d-a2ef-50a949541128,CONSUMER,29.570862,75.498036,Haryana & Delhi NCR,farmland,40.3,3229.4,06:00:00,18:00:00,Mon-Fri,ACTIVE
30377357-f14c-4290-9579-7c503b3c261f,CONSUMER,29.530056,75.490935,Haryana & Delhi NCR,farmland,41.6,1886.4,06:00:00,18:00:00,Mon-Fri,ACTIVE
13494cff-d7d2-46d5-b0cf-52e587289e8f,CONSUMER,29.538723,75.520077,Haryana & Delhi NCR,farmland,28.3,2864.2,06:00:00,18:00:00,Mon-Fri,ACTIVE
0cae7cea-c9f9-42d4-a7aa-935e82e3fd56,CONSUMER,29.557727,75.52612,Haryana & Delhi NCR,farmland,51.7,930.2,06:00:00,18:00:00,Mon-Fri,ACTIVE
863aee0d-7603-4c2a-9abe-e2d30683c2e2,CONSUMER,29.515729,75.496543,Haryana & Delhi NCR,farmland,76.8,1841.3,06:00:00,18:00:00,Mon-Fri,ACTIVE
ad240248-8e87-4669-8754-d2ce8ddcace7,CONSUMER,29.51622,75.5208,Haryana & Delhi NCR,farmland,52.5,948.3,06:00:00,18:00:00,Mon-Fri,ACTIVE
c39a90d7-5de9-4427-b905-93461bdbede1,CONSUMER,29.526048,75.533567,Haryana & Delhi NCR,farmland,27.5,1685.6,06:00:00,18:00:00,Mon-Fri,ACTIVE
ede09004-74be-444c-a6d3-98aa88d6acc5,CONSUMER,29.524586,75.562303,Haryana & Delhi NCR,farmland,75.7,768.1,06:00:00,18:00:00,Mon-Fri,ACTIVE
dee43fd7-6a10-4f9d-b78b-cc583103449b,CONSUMER,29.527579,75.555654,Haryana & Delhi NCR,farmland,57.5,2251.8,06:00:00,18:00:00,Mon-Fri,ACTIVE
6ca910d5-dc59-4d8c-a21d-172eb691e07a,CONSUMER,29.550403,75.544503,Haryana & Delhi NCR,farmland,51.4,2982.3,06:00:00,18:00:00,Mon-Fri,ACTIVE
a08e4b01-0bc7-4964-8932-d8d14e1e1f8d,CONSUMER,29.538502,75.581155,Haryana & Delhi NCR,farmland,70.3,1807.6,06:00:00,18:00:00,Mon-Fri,ACTIVE
46cf7a13-64e5-42f6-802c-1450b9644ad2,CONSUMER,29.544208,75.575325,Haryana & Delhi NCR,farmland,70.1,2900.7,06:00:00,18:00:00,Mon-Fri,ACTIVE
c486ec2c-174d-4fd4-8e1e-89478b3f7d8e,CONSUMER,29.512573,75.634535,Haryana & Delhi NCR,farmland,56.1,2139.2,06:00:00,18:00:00,Mon-Fri,ACTIVE
b5cf1dde-1bfd-4d7c-ab7b-5ee7a5498de3,CONSUMER,29.525185,75.577891,Haryana & Delhi NCR,farmland,49.8,3821.7,06:00:00,18:00:00,Mon-Fri,ACTIVE
726c4181-d61c-4436-a163-117d11909884,CONSUMER,29.527121,75.618954,Haryana & Delhi NCR,farmland,89.4,3520.7,06:00:00,18:00:00,Mon-Fri,ACTIVE
bc192e2a-122c-40a0-8663-50fc83d103a7,CONSUMER,29.523846,75.609053,Haryana & Delhi NCR,farmland,62.6,3159.6,06:00:00,18:00:00,Mon-Fri,ACTIVE
a25a71c5-a8e3-456b-bff0-b612b8107183,CONSUMER,29.519573,75.648041,Haryana & Delhi NCR,farmland,43.1,625.1,06:00:00,18:00:00,Mon-Fri,ACTIVE
228f500f-c479-4bb9-800c-e9630766eb1b,CONSUMER,29.542122,75.624723,Haryana & Delhi NCR,farmland,26.7,1962.8,06:00:00,18:00:00,Mon-Fri,ACTIVE
d2643154-8b1a-48b7-a1de-81c96a4fee12,CONSUMER,29.566546,75.700033,Haryana & Delhi NCR,farmland,39.0,1252.6,06:00:00,18:00:00,Mon-Fri,ACTIVE
39f14ca8-b797-43f2-adcf-e53d5b8506ff,CONSUMER,29.561657,75.662047,Haryana & Delhi NCR,farmland,86.9,1158.7,06:00:00,18:00:00,Mon-Fri,ACTIVE
80849b42-b63c-46e4-9cab-99dbe89d6edd,CONSUMER,29.565253,75.677894,Haryana & Delhi NCR,farmland,28.7,1434.7,06:00:00,18:00:00,Mon-Fri,ACTIVE
3aa0ba32-50cc-4035-9dd9-af211e1c3cfd,CONSUMER,29.520865,75.678639,Haryana & Delhi NCR,farmland,84.6,1325.1,06:00:00,18:00:00,Mon-Fri,ACTIVE
bfc48f9f-f4dd-493c-a2c9-45d69d03d399,CONSUMER,29.517615,75.661691,Haryana & Delhi NCR,farmland,82.5,1505.1,06:00:00,18:00:00,Mon-Fri,ACTIVE
b8150111-e984-485e-811a-406bb1443d09,CONSUMER,29.523269,75.684216,Haryana & Delhi NCR,farmland,73.5,3215.5,06:00:00,18:00:00,Mon-Fri,ACTIVE
497d6e54-0939-4ff5-86af-5dc8ae4ae48d,CONSUMER,29.555345,75.703222,Haryana & Delhi NCR,farmland,32.6,2662.2,06:00:00,18:00:00,Mon-Fri,ACTIVE
3b4475fa-4aec-432d-b88a-b3c834ad288b,CONSUMER,29.551262,75.687755,Haryana & Delhi NCR,farmland,89.3,2270.0,06:00:00,18:00:00,Mon-Fri,ACTIVE
3c4e0aa6-4a29-47d4-a442-e182ca9270b5,CONSUMER,29.539725,75.679595,Haryana & Delhi NCR,farmland,60.7,3067.1,06:00:00,18:00:00,Mon-Fri,ACTIVE
86bfa199-9bbd-4666-bec5-af83adcc799a,PRODUCER,28.810427,76.064032,Haryana & Delhi NCR,industrial,305.6,1526.9,06:00:00,18:00:00,Mon-Fri,ACTIVE
e0737a31-3e55-4696-9c57-a2b70e7ef0ae,PRODUCER,29.541106,75.744914,Haryana & Delhi NCR,industrial,398.8,18942.3,06:00:00,18:00:00,Mon-Fri,ACTIVE
2a88fd6d-3bae-43cd-90af-ebba2bf0679f,PRODUCER,29.538119,75.740684,Haryana & Delhi NCR,industrial,236.6,15998.8,06:00:00,18:00:00,Mon-Fri,ACTIVE
c18eb8ad-97b9-46a2-9d28-096f8ae2eeac,PRODUCER,29.535542,75.73678,Haryana & Delhi NCR,industrial,128.0,19555.2,06:00:00,18:00:00,Mon-Fri,ACTIVE
38db5564-01f3-4464-aba2-49278636049f,PRODUCER,29.557178,75.81407,Haryana & Delhi NCR,industrial,338.3,5937.3,06:00:00,18:00:00,Mon-Fri,ACTIVE
eeccfd38-68ad-40bf-b87a-39ee0b8060b4,CONSUMER,29.542799,75.749214,Haryana & Delhi NCR,farmland,58.0,2782.1,06:00:00,18:00:00,Mon-Fri,ACTIVE
6d221ec8-d794-4fd0-bd71-2d6cdecca5b5,PRODUCER,29.536591,75.734396,Haryana & Delhi NCR,industrial,233.0,3512.1,06:00:00,18:00:00,Mon-Fri,ACTIVE
221b8b92-5626-4242-bb72-06bf54b476c7,CONSUMER,29.544757,75.793985,Haryana & Delhi NCR,farmland,28.2,3220.3,06:00:00,18:00:00,Mon-Fri,ACTIVE
f0430448-2aa5-4ae8-9223-00c0ebd63941,PRODUCER,29.565228,75.713604,Haryana & Delhi NCR,industrial,374.3,6515.9,06:00:00,18:00:00,Mon-Fri,ACTIVE
25c15912-e4a3-4e34-a2ba-c94c6e5ab7eb,PRODUCER,29.555684,75.732107,Haryana & Delhi NCR,industrial,237.4,4656.6,06:00:00,18:00:00,Mon-Fri,ACTIVE
4869f3fd-41b9-4cd8-9c1a-014858b53f7f,CONSUMER,29.54344,75.710093,Haryana & Delhi NCR,farmland,34.2,2217.6,06:00:00,18:00:00,Mon-Fri,ACTIVE
cc5b6058-036d-4c3f-bd0a-ef09c78be319,CONSUMER,29.573424,75.715926,Haryana & Delhi NCR,farmland,25.5,3925.3,06:00:00,18:00:00,Mon-Fri,ACTIVE
2f0b3832-acd6-4d5d-81f1-dda7664deff0,CONSUMER,29.553263,75.711863,Haryana & Delhi NCR,farmland,84.3,2997.5,06:00:00,18:00:00,Mon-Fri,ACTIVE
b001a12f-39af-47ba-a59a-f9964166c0cf,PRODUCER,29.559942,75.732856,Haryana & Delhi NCR,industrial,254.9,19572.8,06:00:00,18:00:00,Mon-Fri,ACTIVE
eacfcd59-e06d-4668-b445-2e14a95c3adf,CONSUMER,29.559831,75.723103,Haryana & Delhi NCR,farmland,82.2,2515.4,06:00:00,18:00:00,Mon-Fri,ACTIVE
eccaf77a-45cc-4f17-8d53-54e707317451,PRODUCER,29.568967,75.748701,Haryana & Delhi NCR,industrial,394.7,13642.2,06:00:00,18:00:00,Mon-Fri,ACTIVE
fddcbb2e-0fb3-44e1-9f6d-2ee51bf26b73,CONSUMER,29.558518,75.745772,Haryana & Delhi NCR,farmland,67.2,1126.5,06:00:00,18:00:00,Mon-Fri,ACTIVE
021077b7-ca43-4802-bfbd-9c1a9426e591,PRODUCER,29.573265,75.755361,Haryana & Delhi NCR,industrial,176.5,7500.9,06:00:00,18:00:00,Mon-Fri,ACTIVE
0af7354c-7e07-4e23-8e40-0a80b8534cc1,CONSUMER,29.538481,75.713916,Haryana & Delhi NCR,farmland,33.0,2741.5,06:00:00,18:00:00,Mon-Fri,ACTIVE
3230e6dd-9255-4eb1-b6a1-0804b4ce6da4,PRODUCER,29.573533,75.758141,Haryana & Delhi NCR,industrial,155.7,14596.0,06:00:00,18:00:00,Mon-Fri,ACTIVE
7e5802d2-c83a-4abc-86bd-ccc1ecf41234,CONSUMER,29.575878,75.728799,Haryana & Delhi NCR,farmland,81.7,1327.3,06:00:00,18:00:00,Mon-Fri,ACTIVE
90351b62-f2e5-4305-b551-d069d9fcfeec,CONSUMER,29.580839,75.723966,Haryana & Delhi NCR,farmland,59.0,3302.6,06:00:00,18:00:00,Mon-Fri,ACTIVE
f57aef2a-df7c-482b-b5f0-b123a9624b96,CONSUMER,29.584992,75.758067,Haryana & Delhi NCR,farmland,26.9,2387.8,06:00:00,18:00:00,Mon-Fri,ACTIVE
67987c2b-bceb-4aa0-a01d-c9121ff92b1e,CONSUMER,29.595184,75.738874,Haryana & Delhi NCR,farmland,74.8,646.9,06:00:00,18:00:00,Mon-Fri,ACTIVE
26eb2794-7684-4405-8dd2-9cbb6d1e2438,CONSUMER,29.585072,75.783247,Haryana & Delhi NCR,farmland,30.5,820.0,06:00:00,18:00:00,Mon-Fri,ACTIVE
9575bf97-5daa-4e28-89b8-acf4117888d8,CONSUMER,29.554583,75.778879,Haryana & Delhi NCR,farmland,52.9,1283.5,06:00:00,18:00:00,Mon-Fri,ACTIVE
2eaf7ba9-c580-4ec1-9840-86b81c82b9a4,CONSUMER,29.610683,75.739939,Haryana & Delhi NCR,farmland,68.7,1888.1,06:00:00,18:00:00,Mon-Fri,ACTIVE
90944a8a-8421-4521-8b50-2ea762a43b6f,CONSUMER,29.562943,75.795548,Haryana & Delhi NCR,farmland,38.7,3904.2,06:00:00,18:00:00,Mon-Fri,ACTIVE
940054b8-91e7-43dc-8f68-587ac9b42418,CONSUMER,29.55313,75.779693,Haryana & Delhi NCR,farmland,31.3,1655.1,06:00:00,18:00:00,Mon-Fri,ACTIVE
50295d91-91df-4c09-8ffd-f3d10175a415,CONSUMER,29.570112,75.783329,Haryana & Delhi NCR,farmland,43.8,2360.0,06:00:00,18:00:00,Mon-Fri,ACTIVE
2cd6e4f8-be24-4006-9bdb-3706bf8667b6,CONSUMER,29.529622,75.822077,Haryana & Delhi NCR,farmland,39.9,3004.3,06:00:00,18:00:00,Mon-Fri,ACTIVE
73c9b3fe-8482-4a5a-aa85-85dec992c1bd,CONSUMER,29.535015,75.828238,Haryana & Delhi NCR,farmland,60.5,3932.7,06:00:00,18:00:00,Mon-Fri,ACTIVE
953f4178-b65f-4ec1-aae4-9a20984ad33f,CONSUMER,29.515635,75.876962,Haryana & Delhi NCR,farmland,45.3,3805.2,06:00:00,18:00:00,Mon-Fri,ACTIVE
01454220-68d7-4869-8fc9-6b1662b54241,CONSUMER,29.528771,75.854632,Haryana & Delhi NCR,farmland,67.3,737.6,06:00:00,18:00:00,Mon-Fri,ACTIVE
55d04a75-8490-4c65-9c6a-3dad923ba5f3,CONSUMER,29.531441,75.868975,Haryana & Delhi NCR,farmland,60.1,1202.5,06:00:00,18:00:00,Mon-Fri,ACTIVE
e0c9727a-6533-42bc-896a-50cc2fe81f51,CONSUMER,29.520025,75.879961,Haryana & Delhi NCR,farmland,87.3,1414.1,06:00:00,18:00:00,Mon-Fri,ACTIVE
9ac1a432-3f4e-4278-bd8d-fc96550373c0,CONSUMER,29.557894,75.869819,Haryana & Delhi NCR,farmland,61.4,2772.2,06:00:00,18:00:00,Mon-Fri,ACTIVE
c9f4e43e-d455-4a4b-84f3-757c28148776,CONSUMER,29.554288,75.848607,Haryana & Delhi NCR,farmland,40.4,1301.1,06:00:00,18:00:00,Mon-Fri,ACTIVE
76787d72-3c1b-492f-a497-bbc04633056b,CONSUMER,29.55043,75.829992,Haryana & Delhi NCR,farmland,80.6,3680.0,06:00:00,18:00:00,Mon-Fri,ACTIVE
58314297-1d5a-47c5-a0e5-13c541910dea,CONSUMER,29.56671,75.820525,Haryana & Delhi NCR,farmland,85.9,696.0,06:00:00,18:00:00,Mon-Fri,ACTIVE
1226ca73-ae01-4ced-9629-604ddd94766f,CONSUMER,29.559559,75.85998,Haryana & Delhi NCR,farmland,31.2,1424.4,06:00:00,18:00:00,Mon-Fri,ACTIVE
e0781a3d-418a-4c5d-bb66-9f67ce4b7ac9,PRODUCER,29.6009,75.787613,Haryana & Delhi NCR,industrial,141.6,1089.0,06:00:00,18:00:00,Mon-Fri,ACTIVE
267cf4c5-d5b4-43e9-a726-ecf61f4ec216,CONSUMER,29.588942,75.810609,Haryana & Delhi NCR,farmland,66.1,1667.6,06:00:00,18:00:00,Mon-Fri,ACTIVE
0b809b70-9cad-4f22-848e-9dd86ff5cffa,PRODUCER,29.608237,75.797236,Haryana & Delhi NCR,industrial,236.9,16306.4,06:00:00,18:00:00,Mon-Fri,ACTIVE
5f6756fe-be85-446c-ade2-32d6626f633c,PRODUCER,29.602205,75.793913,Haryana & Delhi NCR,industrial,123.0,15947.7,06:00:00,18:00:00,Mon-Fri,ACTIVE
fd611e28-6e2c-443b-9c1f-76a15412fb02,CONSUMER,29.59647,75.856093,Haryana & Delhi NCR,farmland,54.1,3483.7,06:00:00,18:00:00,Mon-Fri,ACTIVE
aa7f8497-8457-453e-bc58-6d96e8c0703b,CONSUMER,29.572688,75.843195,Haryana & Delhi NCR,farmland,26.2,1422.6,06:00:00,18:00:00,Mon-Fri,ACTIVE
a4374df3-d46f-4bc4-aeba-bb436620b739,CONSUMER,29.585459,75.859348,Haryana & Delhi NCR,farmland,63.0,3891.7,06:00:00,18:00:00,Mon-Fri,ACTIVE
8a85c6a8-2a61-42c1-9fef-1182c3adebc4,CONSUMER,29.588618,75.845559,Haryana & Delhi NCR,farmland,53.6,2477.5,06:00:00,18:00:00,Mon-Fri,ACTIVE
7eaed981-f1c2-442d-b9b6-ab182084e686,CONSUMER,29.583283,75.827817,Haryana & Delhi NCR,farmland,33.3,2952.0,06:00:00,18:00:00,Mon-Fri,ACTIVE
aaa840bb-4f33-4357-99b7-e5ee7e7b9d33,CONSUMER,29.642154,75.751019,Haryana & Delhi NCR,farmland,48.1,3308.8,06:00:00,18:00:00,Mon-Fri,ACTIVE
dfa9c525-e1b1-4ce1-87b2-83e942965695,CONSUMER,29.622397,75.751909,Haryana & Delhi NCR,farmland,54.5,2755.4,06:00:00,18:00:00,Mon-Fri,ACTIVE
39b1801d-d2a3-4fc3-b3ca-75888ec5bea8,CONSUMER,29.665347,75.734475,Haryana & Delhi NCR,farmland,78.7,3758.7,06:00:00,18:00:00,Mon-Fri,ACTIVE
bb7b9ec1-33eb-4276-90de-96ce7f1b10c6,CONSUMER,29.664874,75.749932,Haryana & Delhi NCR,farmland,37.2,1582.5,06:00:00,18:00:00,Mon-Fri,ACTIVE
929f00ba-9d72-463c-b3c3-fa25b753ba62,CONSUMER,29.66941,75.743167,Haryana & Delhi NCR,farmland,34.8,859.5,06:00:00,18:00:00,Mon-Fri,ACTIVE
9b062ab8-88c9-452f-89f7-97bcb728f558,PRODUCER,29.668251,75.739796,Haryana & Delhi NCR,industrial,109.3,15354.1,06:00:00,18:00:00,Mon-Fri,ACTIVE
48615aa7-0fa9-49d3-b557-9d8559b6ede0,CONSUMER,29.655334,75.753489,Haryana & Delhi NCR,farmland,56.9,1053.3,06:00:00,18:00:00,Mon-Fri,ACTIVE
bb467011-c970-4d6e-84d6-eb832317da96,CONSUMER,29.640837,75.779734,Haryana & Delhi NCR,farmland,25.3,2921.3,06:00:00,18:00:00,Mon-Fri,ACTIVE
f276dd0f-ed60-455e-8ea6-a354a5491da3,CONSUMER,29.6188,75.77626,Haryana & Delhi NCR,farmland,56.9,3523.8,06:00:00,18:00:00,Mon-Fri,ACTIVE
0f3434ab-ee02-4167-8fc3-9c27db3258b8,PRODUCER,29.656743,75.759684,Haryana & Delhi NCR,industrial,244.2,6967.0,06:00:00,18:00:00,Mon-Fri,ACTIVE
10ec58c2-815b-44bd-be73-da2468c6b2f2,CONSUMER,29.664093,75.770369,Haryana & Delhi NCR,farmland,83.2,1058.0,06:00:00,18:00:00,Mon-Fri,ACTIVE
efde7860-8929-4e0f-91d5-e104961aff2c,CONSUMER,29.650615,75.782236,Haryana & Delhi NCR,farmland,78.7,3837.5,06:00:00,18:00:00,Mon-Fri,ACTIVE
ef598d78-082b-4362-b665-6a00a30f5288,CONSUMER,29.671473,75.788133,Haryana & Delhi NCR,farmland,56.2,1139.3,06:00:00,18:00:00,Mon-Fri,ACTIVE
c0cde8a0-6720-4261-8361-ea8409d3de5e,CONSUMER,29.655853,75.792327,Haryana & Delhi NCR,farmland,28.0,955.4,06:00:00,18:00:00,Mon-Fri,ACTIVE
885d6808-68a4-4e6a-9d8b-5fd6513163e3,CONSUMER,29.680764,75.795492,Haryana & Delhi NCR,farmland,42.5,1503.1,06:00:00,18:00:00,Mon-Fri,ACTIVE
84b9e285-6bff-47ba-bf79-5f38cc73571a,CONSUMER,29.663155,75.801519,Haryana & Delhi NCR,farmland,78.7,3545.6,06:00:00,18:00:00,Mon-Fri,ACTIVE
1f61c00f-9fbf-4192-a56e-fd8f98cc616a,CONSUMER,29.623879,75.802583,Haryana & Delhi NCR,farmland,31.5,2158.2,06:00:00,18:00:00,Mon-Fri,ACTIVE
e8be51f1-8d48-4594-aaeb-4a3b7b1af0ce,CONSUMER,29.632259,75.824564,Haryana & Delhi NCR,farmland,60.8,3031.5,06:00:00,18:00:00,Mon-Fri,ACTIVE
7c19a745-5366-4621-9063-a3da3822f270,CONSUMER,29.655342,75.811831,Haryana & Delhi NCR,farmland,76.3,604.8,06:00:00,18:00:00,Mon-Fri,ACTIVE
dacd785b-86b2-4fe2-a8c6-571613e79403,CONSUMER,29.657559,75.805676,Haryana & Delhi NCR,farmland,32.5,1285.1,06:00:00,18:00:00,Mon-Fri,ACTIVE
0f9de9d3-b754-4e81-8639-d7090d6b75e6,CONSUMER,29.648114,75.810047,Haryana & Delhi NCR,farmland,84.6,3637.0,06:00:00,18:00:00,Mon-Fri,ACTIVE
8ed24b83-b192-435c-9f89-bac054ee92c1,CONSUMER,29.606036,75.841432,Haryana & Delhi NCR,farmland,84.0,2533.6,06:00:00,18:00:00,Mon-Fri,ACTIVE
858bd078-ce6a-482e-aa20-e872205a8d7d,CONSUMER,29.648289,75.798811,Haryana & Delhi NCR,farmland,75.7,2228.7,06:00:00,18:00:00,Mon-Fri,ACTIVE
4fe22084-c2db-4333-94e5-7a89bd02606b,PRODUCER,29.618188,75.806797,Haryana & Delhi NCR,industrial,192.8,10666.9,06:00:00,18:00:00,Mon-Fri,ACTIVE
01af619b-2e66-4a73-b8cf-896c15a0a306,CONSUMER,29.611304,75.813907,Haryana & Delhi NCR,farmland,46.5,1498.6,06:00:00,18:00:00,Mon-Fri,ACTIVE
ac8fa153-961a-405b-9dab-df4c63da99dd,CONSUMER,29.653158,75.833083,Haryana & Delhi NCR,farmland,38.7,505.2,06:00:00,18:00:00,Mon-Fri,ACTIVE
8e8106c7-3a49-46f7-9d71-aed1e464bcb2,CONSUMER,29.654103,75.825992,Haryana & Delhi NCR,farmland,89.5,2231.1,06:00:00,18:00:00,Mon-Fri,ACTIVE
860374d5-9a41-4376-9615-883374b1aafe,CONSUMER,29.667404,75.809558,Haryana & Delhi NCR,farmland,33.3,1300.3,06:00:00,18:00:00,Mon-Fri,ACTIVE
909cf730-797f-401a-a1ef-7c208ab8ba42,CONSUMER,29.67118,75.805252,Haryana & Delhi NCR,farmland,57.7,1237.4,06:00:00,18:00:00,Mon-Fri,ACTIVE
7f46e139-6125-4e21-80b1-682d624638b0,PRODUCER,29.691287,75.810663,Haryana & Delhi NCR,industrial,100.0,9492.3,06:00:00,18:00:00,Mon-Fri,ACTIVE
5a492825-d399-4b3b-bcb8-9317e8436fe8,CONSUMER,29.667326,75.817455,Haryana & Delhi NCR,farmland,71.3,3364.6,06:00:00,18:00:00,Mon-Fri,ACTIVE
249d4f4f-99f6-4818-9ed8-9331514fd442,CONSUMER,29.687719,75.819287,Haryana & Delhi NCR,farmland,83.9,906.2,06:00:00,18:00:00,Mon-Fri,ACTIVE
aa1a7f09-e04e-46fd-8b8f-f27643629d83,CONSUMER,29.595236,75.866461,Haryana & Delhi NCR,farmland,75.5,599.8,06:00:00,18:00:00,Mon-Fri,ACTIVE
feb36ea8-0abd-440d-b2aa-c9b2d017b227,CONSUMER,29.61822,75.863742,Haryana & Delhi NCR,farmland,45.5,1251.3,06:00:00,18:00:00,Mon-Fri,ACTIVE
438dd32c-ac89-4098-8ab8-abf3bd96ea13,CONSUMER,29.608896,75.864835,Haryana & Delhi NCR,farmland,40.2,3098.7,06:00:00,18:00:00,Mon-Fri,ACTIVE
de37bbd4-8530-4561-b376-7c77533054e0,CONSUMER,29.586086,75.867124,Haryana & Delhi NCR,farmland,41.3,3191.4,06:00:00,18:00:00,Mon-Fri,ACTIVE
03dc5c38-09ae-4b6e-a902-8ab0d8dcd976,CONSUMER,29.611559,75.848848,Haryana & Delhi NCR,farmland,35.5,3776.4,06:00:00,18:00:00,Mon-Fri,ACTIVE
1eef0ee8-a097-4016-8b3a-f117c5529fa2,CONSUMER,29.603147,75.859347,Haryana & Delhi NCR,farmland,32.0,633.2,06:00:00,18:00:00,Mon-Fri,ACTIVE
f863c578-c911-456e-bf80-05fb4459a41e,CONSUMER,29.630828,75.85007,Haryana & Delhi NCR,farmland,32.0,2769.7,06:00:00,18:00:00,Mon-Fri,ACTIVE
44019898-c342-419e-bbf0-892d66d4c54b,CONSUMER,29.65967,75.834178,Haryana & Delhi NCR,farmland,69.3,2368.6,06:00:00,18:00:00,Mon-Fri,ACTIVE
6cdd2a5b-b668-4757-8b44-5323277a268f,CONSUMER,29.695709,75.841673,Haryana & Delhi NCR,farmland,73.5,1164.6,06:00:00,18:00:00,Mon-Fri,ACTIVE
86e1569d-434b-47bc-b7ec-2b7cfdf1c43e,CONSUMER,29.70033,75.842411,Haryana & Delhi NCR,farmland,47.7,2919.5,06:00:00,18:00:00,Mon-Fri,ACTIVE
0b607d33-ac59-416b-9268-16c8f4f4ceda,CONSUMER,29.689767,75.842719,Haryana & Delhi NCR,farmland,48.9,3102.4,06:00:00,18:00:00,Mon-Fri,ACTIVE
2cf60f6b-754c-40f6-95b6-df573a4099f6,CONSUMER,29.671834,75.832842,Haryana & Delhi NCR,farmland,73.3,2402.0,06:00:00,18:00:00,Mon-Fri,ACTIVE
335023ef-8cbe-412b-b76f-fd4a81e8ae38,CONSUMER,29.631965,75.865473,Haryana & Delhi NCR,farmland,64.8,1974.8,06:00:00,18:00:00,Mon-Fri,ACTIVE
cea0e47f-2120-4b5c-b3f4-174db768654f,CONSUMER,29.675864,75.85947,Haryana & Delhi NCR,farmland,79.9,2840.9,06:00:00,18:00:00,Mon-Fri,ACTIVE
2a80ec5e-824d-47c0-988d-4e619c0832c8,CONSUMER,29.701156,75.851468,Haryana & Delhi NCR,farmland,39.4,1618.3,06:00:00,18:00:00,Mon-Fri,ACTIVE
da0c86b7-9427-4079-a1b9-3add2a515721,CONSUMER,29.658001,75.853793,Haryana & Delhi NCR,farmland,79.8,2599.7,06:00:00,18:00:00,Mon-Fri,ACTIVE
4229c5da-a18d-4dab-981b-44cbe9a3faef,CONSUMER,29.655389,75.83746,Haryana & Delhi NCR,farmland,26.3,608.7,06:00:00,18:00:00,Mon-Fri,ACTIVE
adad51d6-ab53-4d58-9974-6d93527260b7,PRODUCER,29.702363,75.847816,Haryana & Delhi NCR,industrial,319.4,12897.8,06:00:00,18:00:00,Mon-Fri,ACTIVE
544e9dab-22e2-422d-b5bf-ede4d94246df,CONSUMER,29.637268,75.854784,Haryana & Delhi NCR,farmland,50.1,997.8,06:00:00,18:00:00,Mon-Fri,ACTIVE
9e99c1c0-6edb-46c7-81d5-04ab1eec33d6,CONSUMER,29.686842,75.8527,Haryana & Delhi NCR,farmland,69.4,3143.3,06:00:00,18:00:00,Mon-Fri,ACTIVE
35e5ec82-b02f-4317-a49a-d626f9e3d828,CONSUMER,29.671975,75.844496,Haryana & Delhi NCR,farmland,51.5,2426.0,06:00:00,18:00:00,Mon-Fri,ACTIVE
a3e709dc-2d03-4d4d-bb85-6d657932eba7,CONSUMER,29.660988,75.848952,Haryana & Delhi NCR,farmland,25.9,3001.4,06:00:00,18:00:00,Mon-Fri,ACTIVE
40d31829-e7b7-470d-9145-9e26f50e4705,CONSUMER,29.697539,75.851349,Haryana & Delhi NCR,farmland,55.8,2344.2,06:00:00,18:00:00,Mon-Fri,ACTIVE
b8b936d5-1c72-4238-a2da-d37e60a61994,CONSUMER,29.67399,75.853889,Haryana & Delhi NCR,farmland,68.0,3462.7,06:00:00,18:00:00,Mon-Fri,ACTIVE
c83ea4fc-d42a-44b5-aa12-19017e564661,PRODUCER,28.260676,77.319126,Haryana & Delhi NCR,industrial,204.9,14963.0,06:00:00,18:00:00,Mon-Fri,ACTIVE
03982ce3-9820-4317-a938-6250574ce12f,PRODUCER,28.550301,77.401949,Haryana & Delhi NCR,industrial,354.4,16126.7,06:00:00,18:00:00,Mon-Fri,ACTIVE
e92e00c5-56a7-47de-bfd0-750d66105b7e,CONSUMER,29.671936,75.614914,Haryana & Delhi NCR,farmland,49.9,2159.3,06:00:00,18:00:00,Mon-Fri,ACTIVE
3fc57836-7de5-4ff2-8b5b-4bb24b4bd22e,CONSUMER,29.674756,75.607012,Haryana & Delhi NCR,farmland,60.4,1655.9,06:00:00,18:00:00,Mon-Fri,ACTIVE
3a8f4017-1b42-4561-8d0f-53c83c4f27e3,CONSUMER,29.68783,75.611811,Haryana & Delhi NCR,farmland,73.8,1126.1,06:00:00,18:00:00,Mon-Fri,ACTIVE
05965ed3-61bf-48b4-93a7-1390fb6634c0,CONSUMER,29.673723,75.623546,Haryana & Delhi NCR,farmland,36.3,3067.1,06:00:00,18:00:00,Mon-Fri,ACTIVE
ae0c1af0-eb75-4411-8cb6-af50628cdf4e,CONSUMER,29.673671,75.613328,Haryana & Delhi NCR,farmland,68.8,2350.2,06:00:00,18:00:00,Mon-Fri,ACTIVE
f48d22cf-2406-4706-aca6-ef5bb7b6dd46,CONSUMER,29.678545,75.589095,Haryana & Delhi NCR,farmland,56.4,1668.3,06:00:00,18:00:00,Mon-Fri,ACTIVE
c12ec121-4186-4485-bef8-687072a584f7,CONSUMER,29.745351,75.637379,Haryana & Delhi NCR,farmland,51.2,2298.3,06:00:00,18:00:00,Mon-Fri,ACTIVE
865700c2-f4a9-465c-9166-d555ab0c645d,CONSUMER,29.744293,75.633373,Haryana & Delhi NCR,farmland,61.1,3921.8,06:00:00,18:00:00,Mon-Fri,ACTIVE
6cd1991c-0769-4d5e-86ca-4c2f5bff6490,CONSUMER,29.742587,75.633662,Haryana & Delhi NCR,farmland,62.4,1373.5,06:00:00,18:00:00,Mon-Fri,ACTIVE
3e65fc7c-decf-4540-be85-413b4a067912,CONSUMER,29.734127,75.635884,Haryana & Delhi NCR,farmland,69.8,945.9,06:00:00,18:00:00,Mon-Fri,ACTIVE
ff260308-35a5-4fee-b9df-4aee7f28ca86,CONSUMER,29.739555,75.635388,Haryana & Delhi NCR,farmland,56.9,2101.5,06:00:00,18:00:00,Mon-Fri,ACTIVE
6cc3c922-17aa-4e6a-b3f1-1eccc9abba68,CONSUMER,29.739994,75.629596,Haryana & Delhi NCR,farmland,72.2,3842.1,06:00:00,18:00:00,Mon-Fri,ACTIVE
f65159cc-65a6-4422-92e5-a4cb21909474,CONSUMER,29.736793,75.626793,Haryana & Delhi NCR,farmland,87.7,2843.5,06:00:00,18:00:00,Mon-Fri,ACTIVE
383f5c61-7800-4c3a-88ae-1cac73514576,CONSUMER,29.737711,75.629975,Haryana & Delhi NCR,farmland,64.5,1731.5,06:00:00,18:00:00,Mon-Fri,ACTIVE
b0bd6a57-8eb7-47a4-9bac-768b85337988,CONSUMER,29.7303,75.628357,Haryana & Delhi NCR,farmland,82.9,3907.7,06:00:00,18:00:00,Mon-Fri,ACTIVE
bf9d84ec-0bd9-4226-818d-1920ede28e15,CONSUMER,29.732673,75.634954,Haryana & Delhi NCR,farmland,49.4,3042.3,06:00:00,18:00:00,Mon-Fri,ACTIVE
c91e0c30-32ae-482e-8bdf-8fb9e62cc6d0,CONSUMER,29.729108,75.633769,Haryana & Delhi NCR,farmland,41.7,2071.4,06:00:00,18:00:00,Mon-Fri,ACTIVE
cd96c734-38bb-4442-abe4-0df32336f7b7,CONSUMER,29.740666,75.616259,Haryana & Delhi NCR,farmland,38.1,3399.8,06:00:00,18:00:00,Mon-Fri,ACTIVE
46e1ac8d-4c0f-446c-a838-96119018a9d2,CONSUMER,29.742119,75.597572,Haryana & Delhi NCR,farmland,88.9,1979.4,06:00:00,18:00:00,Mon-Fri,ACTIVE
d8b6d1d0-8ae0-4a92-b567-c9ada7b2d39a,CONSUMER,29.706792,75.631827,Haryana & Delhi NCR,farmland,68.9,1805.9,06:00:00,18:00:00,Mon-Fri,ACTIVE
8b1fd799-2408-45b7-bc24-70689b48f0ac,CONSUMER,29.720833,75.629046,Haryana & Delhi NCR,farmland,88.7,2285.7,06:00:00,18:00:00,Mon-Fri,ACTIVE
4fa2454f-7287-4813-a657-5a2e4a4d450b,CONSUMER,29.721326,75.625585,Haryana & Delhi NCR,farmland,70.2,3819.7,06:00:00,18:00:00,Mon-Fri,ACTIVE
4817d9cc-75e4-4a2a-b776-f3732c75d42a,CONSUMER,29.710899,75.629608,Haryana & Delhi NCR,farmland,32.8,2992.5,06:00:00,18:00:00,Mon-Fri,ACTIVE
a86e97a9-58a4-40b4-8850-acd0eff2ab2c,CONSUMER,29.715372,75.627758,Haryana & Delhi NCR,farmland,87.1,677.4,06:00:00,18:00:00,Mon-Fri,ACTIVE
018c365a-476d-45ef-9eeb-084d45388250,CONSUMER,29.725323,75.630801,Haryana & Delhi NCR,farmland,26.6,2762.4,06:00:00,18:00:00,Mon-Fri,ACTIVE
3cdc01fa-a97b-4b7f-ab23-dffd41dffcd8,CONSUMER,29.716867,75.58478,Haryana & Delhi NCR,farmland,86.4,2450.0,06:00:00,18:00:00,Mon-Fri,ACTIVE
19652a1f-5057-4c55-bd73-dc6446f0702e,CONSUMER,29.720681,75.618587,Haryana & Delhi NCR,farmland,81.3,3431.2,06:00:00,18:00:00,Mon-Fri,ACTIVE
3c0b5edb-7b55-4bbd-8e56-40cf41e447c9,CONSUMER,29.729966,75.611913,Haryana & Delhi NCR,farmland,73.0,1917.5,06:00:00,18:00:00,Mon-Fri,ACTIVE
